"ID"	"Name"	"City"	"Country"	"Latitude"	"Longitude"
1	"Goroka Airport"	"Goroka"	"Papua New Guinea"	-6.08168983459	145.391998291
2	"Madang Airport"	"Madang"	"Papua New Guinea"	-5.20707988739	145.789001465
3	"Mount Hagen Kagamuga Airport"	"Mount Hagen"	"Papua New Guinea"	-5.82678985595703	144.296005249023
4	"Nadzab Airport"	"Nadzab"	"Papua New Guinea"	-6.569803	146.725977
5	"Port Moresby Jacksons International Airport"	"Port Moresby"	"Papua New Guinea"	-9.44338035583496	147.220001220703
6	"Wewak International Airport"	"Wewak"	"Papua New Guinea"	-3.58383011818	143.669006348
7	"Narsarsuaq Airport"	"Narssarssuaq"	"Greenland"	61.1604995728	-45.4259986877
8	"Godthaab / Nuuk Airport"	"Godthaab"	"Greenland"	64.19090271	-51.6781005859
9	"Kangerlussuaq Airport"	"Sondrestrom"	"Greenland"	67.0122218992	-50.7116031647
10	"Thule Air Base"	"Thule"	"Greenland"	76.5311965942	-68.7032012939
11	"Akureyri Airport"	"Akureyri"	"Iceland"	65.6600036621094	-18.0727005004883
12	"Egilsstaðir Airport"	"Egilsstadir"	"Iceland"	65.2833023071289	-14.4013996124268
13	"Hornafjörður Airport"	"Hofn"	"Iceland"	64.295601	-15.2272
14	"Húsavík Airport"	"Husavik"	"Iceland"	65.952301	-17.426001
15	"Ísafjörður Airport"	"Isafjordur"	"Iceland"	66.0580978393555	-23.1352996826172
16	"Keflavik International Airport"	"Keflavik"	"Iceland"	63.985000610352	-22.605600357056
17	"Patreksfjörður Airport"	"Patreksfjordur"	"Iceland"	65.555801	-23.965
18	"Reykjavik Airport"	"Reykjavik"	"Iceland"	64.1299972534	-21.9405994415
19	"Siglufjörður Airport"	"Siglufjordur"	"Iceland"	66.133301	-18.9167
20	"Vestmannaeyjar Airport"	"Vestmannaeyjar"	"Iceland"	63.4243011474609	-20.2789001464844
21	"Sault Ste Marie Airport"	"Sault Sainte Marie"	"Canada"	46.4850006103516	-84.5093994140625
22	"Winnipeg / St. Andrews Airport"	"Winnipeg"	"Canada"	50.0564002991	-97.0325012207
23	"Halifax / CFB Shearwater Heliport"	"Halifax"	"Canada"	44.639702	-63.499401
24	"St. Anthony Airport"	"St. Anthony"	"Canada"	51.3918991089	-56.0830993652
25	"Tofino / Long Beach Airport"	"Tofino"	"Canada"	49.079833	-125.775583
26	"Kugaaruk Airport"	"Pelly Bay"	"Canada"	68.534401	-89.808098
27	"Baie Comeau Airport"	"Baie Comeau"	"Canada"	49.1324996948242	-68.2043991088867
28	"CFB Bagotville"	"Bagotville"	"Canada"	48.3306007385254	-70.9963989257812
29	"Baker Lake Airport"	"Baker Lake"	"Canada"	64.2988967896	-96.077796936
30	"Campbell River Airport"	"Campbell River"	"Canada"	49.9508018493652	-125.271003723145
31	"Brandon Municipal Airport"	"Brandon"	"Canada"	49.91	-99.951897
32	"Cambridge Bay Airport"	"Cambridge Bay"	"Canada"	69.1081008911	-105.138000488
33	"Nanaimo Airport"	"Nanaimo"	"Canada"	49.0549702249	-123.869862556
34	"Castlegar/West Kootenay Regional Airport"	"Castlegar"	"Canada"	49.2963981628	-117.632003784
35	"Miramichi Airport"	"Chatham"	"Canada"	47.007801	-65.449203
36	"Charlo Airport"	"Charlo"	"Canada"	47.990799	-66.330299
37	"Kugluktuk Airport"	"Coppermine"	"Canada"	67.816704	-115.143997
38	"Coronation Airport"	"Coronation"	"Canada"	52.0750007629	-111.444999695
39	"Chilliwack Airport"	"Chilliwack"	"Canada"	49.1528015137	-121.939002991
40	"Clyde River Airport"	"Clyde River"	"Canada"	70.4860992432	-68.5167007446
41	"Coral Harbour Airport"	"Coral Harbour"	"Canada"	64.1932983398	-83.3593978882
42	"Dawson City Airport"	"Dawson"	"Canada"	64.043098449707	-139.128005981445
43	"Burwash Airport"	"Burwash"	"Canada"	61.3711013793945	-139.041000366211
44	"Princeton Airport"	"Princeton"	"Canada"	49.4681015015	-120.511001587
45	"Deer Lake Airport"	"Deer Lake"	"Canada"	49.2108001708984	-57.3913993835449
46	"Dease Lake Airport"	"Dease Lake"	"Canada"	58.4221992493	-130.031997681
47	"Dauphin Barker Airport"	"Dauphin"	"Canada"	51.1007995605469	-100.052001953125
48	"Dawson Creek Airport"	"Dawson Creek"	"Canada"	55.7422981262207	-120.182998657227
49	"Edmonton International Airport"	"Edmonton"	"Canada"	53.3097000122	-113.580001831
50	"Arviat Airport"	"Eskimo Point"	"Canada"	61.0942001343	-94.0708007812
51	"Estevan Airport"	"Estevan"	"Canada"	49.2103004456	-102.966003418
52	"Edson Airport"	"Edson"	"Canada"	53.5788993835	-116.464996338
53	"Eureka Airport"	"Eureka"	"Canada"	79.9946975708	-85.814201355
54	"Inuvik Mike Zubko Airport"	"Inuvik"	"Canada"	68.3041992188	-133.483001709
55	"Iqaluit Airport"	"Iqaluit"	"Canada"	63.756402	-68.555801
56	"Fredericton Airport"	"Fredericton"	"Canada"	45.8689002990723	-66.5372009277344
57	"Forestville Airport"	"Forestville"	"Canada"	48.7461013793945	-69.0971984863281
58	"Flin Flon Airport"	"Flin Flon"	"Canada"	54.6781005859375	-101.681999206543
59	"Fort Resolution Airport"	"Fort Resolution"	"Canada"	61.1808013916	-113.690002441
60	"Fort Simpson Airport"	"Fort Simpson"	"Canada"	61.7602005004883	-121.236999511719
61	"Kingston Norman Rogers Airport"	"Kingston"	"Canada"	44.2252998352051	-76.5969009399414
62	"La Grande Rivière Airport"	"La Grande Riviere"	"Canada"	53.625301361084	-77.7042007446289
63	"Gaspé (Michel-Pouliot) Airport"	"Gaspe"	"Canada"	48.7752990723	-64.4785995483
64	"Geraldton Greenstone Regional Airport"	"Geraldton"	"Canada"	49.7783012390137	-86.9393997192383
65	"Îles-de-la-Madeleine Airport"	"Iles De La Madeleine"	"Canada"	47.4247016906738	-61.7780990600586
66	"Hudson Bay Airport"	"Hudson Bay"	"Canada"	52.8166999817	-102.310997009
67	"Dryden Regional Airport"	"Dryden"	"Canada"	49.831699	-92.744202
68	"Ulukhaktok Holman Airport"	"Holman Island"	"Canada"	70.7628021240234	-117.805999755859
69	"Gjoa Haven Airport"	"Gjoa Haven"	"Canada"	68.635597229	-95.8497009277
70	"John C. Munro Hamilton International Airport"	"Hamilton"	"Canada"	43.1735992432	-79.9349975586
71	"Montréal / Saint-Hubert Airport"	"Montreal"	"Canada"	45.5175018311	-73.4169006348
72	"Hay River / Merlyn Carter Airport"	"Hay River"	"Canada"	60.8396987915	-115.782997131
73	"Halifax / Stanfield International Airport"	"Halifax"	"Canada"	44.8807983398	-63.5085983276
74	"Atikokan Municipal Airport"	"Atikokan"	"Canada"	48.7738990784	-91.6386032104
75	"Pond Inlet Airport"	"Pond Inlet"	"Canada"	72.6832962036	-77.9666976929
76	"St Jean Airport"	"St. Jean"	"Canada"	45.2943992614746	-73.2810974121094
77	"Stephenville Airport"	"Stephenville"	"Canada"	48.5442008972168	-58.5499992370605
78	"Kamloops Airport"	"Kamloops"	"Canada"	50.7022018433	-120.444000244
79	"Waterloo Airport"	"Waterloo"	"Canada"	43.4608001709	-80.3786010742
80	"Schefferville Airport"	"Schefferville"	"Canada"	54.8053016662598	-66.8052978515625
81	"Kindersley Airport"	"Kindersley"	"Canada"	51.5175018311	-109.180999756
82	"Buttonville Municipal Airport"	"Toronto"	"Canada"	43.8622016906738	-79.370002746582
83	"Chapleau Airport"	"Chapleau"	"Canada"	47.8199996948242	-83.3467025756836
84	"Meadow Lake Airport"	"Meadow Lake"	"Canada"	54.125301361084	-108.523002624512
85	"Lloydminster Airport"	"Lloydminster"	"Canada"	53.3092002868652	-110.072998046875
86	"Alert Airport"	"Alert"	"Canada"	82.5177993774	-62.2806015015
87	"Kelowna International Airport"	"Kelowna"	"Canada"	49.9561004639	-119.377998352
88	"Mayo Airport"	"Mayo"	"Canada"	63.6164016723633	-135.86799621582
89	"Moose Jaw Air Vice Marshal C. M. McEwen Airport"	"Moose Jaw"	"Canada"	50.3302993774414	-105.55899810791
90	"Fort McMurray Airport"	"Fort Mcmurray"	"Canada"	56.653301239	-111.222000122
91	"Moosonee Airport"	"Moosonee"	"Canada"	51.2910995483398	-80.6078033447266
92	"Maniwaki Airport"	"Maniwaki"	"Canada"	46.2728004456	-75.9906005859
93	"Montreal International (Mirabel) Airport"	"Montreal"	"Canada"	45.679501	-74.038696
94	"Natashquan Airport"	"Natashquan"	"Canada"	50.189998626709	-61.7891998291016
95	"Ottawa / Gatineau Airport"	"Gatineau"	"Canada"	45.5217018127	-75.5635986328
96	"Matagami Airport"	"Matagami"	"Canada"	49.7616996765137	-77.8028030395508
97	"Old Crow Airport"	"Old Crow"	"Canada"	67.5706024169922	-139.839004516602
98	"CFB Cold Lake"	"Cold Lake"	"Canada"	54.4049987792969	-110.278999328613
99	"High Level Airport"	"High Level"	"Canada"	58.6213989257812	-117.165000915527
100	"Ottawa Macdonald-Cartier International Airport"	"Ottawa"	"Canada"	45.3224983215332	-75.6691970825195
101	"Prince Albert Glass Field"	"Prince Albert"	"Canada"	53.2141990662	-105.672996521
102	"Peace River Airport"	"Peace River"	"Canada"	56.226898	-117.446999
103	"Southport Airport"	"Portage-la-prairie"	"Canada"	49.903099	-98.273817
104	"Pitt Meadows Airport"	"Pitt Meadows"	"Canada"	49.2160987854004	-122.709999084473
105	"Pickle Lake Airport"	"Pickle Lake"	"Canada"	51.4463996887207	-90.2142028808594
106	"Port Menier Airport"	"Port Menier"	"Canada"	49.8363990783691	-64.2885971069336
107	"Peterborough Airport"	"Peterborough"	"Canada"	44.2299995422363	-78.3632965087891
108	"Prince Rupert Airport"	"Prince Pupert"	"Canada"	54.2860984802	-130.445007324
109	"Fort Chipewyan Airport"	"Fort Chipewyan"	"Canada"	58.7672004699707	-111.116996765137
110	"Muskoka Airport"	"Muskoka"	"Canada"	44.9747009277344	-79.3032989501953
111	"Quebec Jean Lesage International Airport"	"Quebec"	"Canada"	46.7911	-71.393303
112	"Red Deer Regional Airport"	"Red Deer Industrial"	"Canada"	52.182201385498	-113.893997192383
113	"Windsor Airport"	"Windsor"	"Canada"	42.2756004333496	-82.9555969238281
114	"Watson Lake Airport"	"Watson Lake"	"Canada"	60.1164016723633	-128.822006225586
115	"Kenora Airport"	"Kenora"	"Canada"	49.7882995605469	-94.3630981445312
116	"Lethbridge County Airport"	"Lethbridge"	"Canada"	49.6302986145	-112.800003052
117	"Greater Moncton International Airport"	"Moncton"	"Canada"	46.1122016906738	-64.678596496582
119	"Comox Airport"	"Comox"	"Canada"	49.7108001708984	-124.887001037598
120	"Regina International Airport"	"Regina"	"Canada"	50.4319000244141	-104.666000366211
121	"Thunder Bay Airport"	"Thunder Bay"	"Canada"	48.371898651123	-89.3238983154297
122	"Grande Prairie Airport"	"Grande Prairie"	"Canada"	55.1796989441	-118.885002136
123	"Yorkton Municipal Airport"	"Yorkton"	"Canada"	51.2647018432617	-102.46199798584
124	"North Battleford Airport"	"North Battleford"	"Canada"	52.7691993713379	-108.244003295898
125	"Gander International Airport"	"Gander"	"Canada"	48.9369010925293	-54.5680999755859
126	"Sydney / J.A. Douglas McCurdy Airport"	"Sydney"	"Canada"	46.1614	-60.047798
127	"Quesnel Airport"	"Quesnel"	"Canada"	53.0261001586914	-122.51000213623
128	"Resolute Bay Airport"	"Resolute"	"Canada"	74.7169036865	-94.9693984985
129	"Rivière-du-Loup Airport"	"Riviere Du Loup"	"Canada"	47.7644004821777	-69.5847015380859
130	"Roberval Airport"	"Roberval"	"Canada"	48.5200004577637	-72.2656021118164
131	"Rocky Mountain House Airport"	"Rocky Mountain House"	"Canada"	52.4296989441	-114.903999329
132	"Rankin Inlet Airport"	"Rankin Inlet"	"Canada"	62.8114013672	-92.1157989502
133	"Sudbury Airport"	"Sudbury"	"Canada"	46.625	-80.7988967895508
134	"Sherbrooke Airport"	"Sherbrooke"	"Canada"	45.4385986328125	-71.6913986206055
135	"Saint John Airport"	"St. John"	"Canada"	45.3161010742188	-65.8902969360352
136	"Fort Smith Airport"	"Fort Smith"	"Canada"	60.0203018188477	-111.96199798584
137	"Nanisivik Airport"	"Nanisivik"	"Canada"	72.982201	-84.613602
138	"Summerside Airport"	"Summerside"	"Canada"	46.440601348877	-63.8335990905762
139	"Sachs Harbour (David Nasogaluak Jr. Saaryuaq) Airport"	"Sachs Harbour"	"Canada"	71.9938964844	-125.242996216
140	"Cape Dorset Airport"	"Cape Dorset"	"Canada"	64.2300033569	-76.5267028809
141	"Thompson Airport"	"Thompson"	"Canada"	55.8011016845703	-97.8641967773438
142	"CFB Trenton"	"Trenton"	"Canada"	44.1189002990723	-77.5280990600586
143	"Timmins/Victor M. Power"	"Timmins"	"Canada"	48.5696983337	-81.376701355
144	"Billy Bishop Toronto City Centre Airport"	"Toronto"	"Canada"	43.627499	-79.396202
145	"Tuktoyaktuk Airport"	"Tuktoyaktuk"	"Canada"	69.4332962036133	-133.026000976562
146	"Montreal / Pierre Elliott Trudeau International Airport"	"Montreal"	"Canada"	45.4706001282	-73.7407989502
147	"Repulse Bay Airport"	"Repulse Bay"	"Canada"	66.5214004517	-86.2247009277
148	"Hall Beach Airport"	"Hall Beach"	"Canada"	68.7761001587	-81.2425
149	"Rouyn Noranda Airport"	"Rouyn"	"Canada"	48.2061004638672	-78.8356018066406
150	"La Ronge Airport"	"La Ronge"	"Canada"	55.1514015198	-105.262001038
151	"Vermilion Airport"	"Vermillion"	"Canada"	53.3558006287	-110.823997498
152	"Qikiqtarjuaq Airport"	"Broughton Island"	"Canada"	67.5457992554	-64.0314025879
153	"Val-d'Or Airport"	"Val D'or"	"Canada"	48.0532989502	-77.7827987671
154	"Kuujjuaq Airport"	"Quujjuaq"	"Canada"	58.0960998535156	-68.4269027709961
155	"Norman Wells Airport"	"Norman Wells"	"Canada"	65.2816009521484	-126.797996520996
156	"Vancouver International Airport"	"Vancouver"	"Canada"	49.193901062	-123.183998108
157	"Buffalo Narrows Airport"	"Buffalo Narrows"	"Canada"	55.8418998718	-108.417999268
158	"Wiarton Airport"	"Wiarton"	"Canada"	44.7458	-81.107201
159	"Petawawa Airport"	"Petawawa"	"Canada"	45.9522018432617	-77.3191986083984
160	"Winnipeg / James Armstrong Richardson International Airport"	"Winnipeg"	"Canada"	49.9099998474	-97.2398986816
161	"Wabush Airport"	"Wabush"	"Canada"	52.9219017028809	-66.8644027709961
162	"Williams Lake Airport"	"Williams Lake"	"Canada"	52.1831016541	-122.054000854
163	"Wrigley Airport"	"Wrigley"	"Canada"	63.209400177002	-123.436996459961
164	"Cranbrook/Canadian Rockies International Airport"	"Cranbrook"	"Canada"	49.610801696777	-115.78199768066
165	"Edmonton City Centre (Blatchford Field) Airport"	"Edmonton"	"Canada"	53.5724983215	-113.521003723
166	"Saskatoon John G. Diefenbaker International Airport"	"Saskatoon"	"Canada"	52.1707992553711	-106.699996948242
167	"Medicine Hat Airport"	"Medicine Hat"	"Canada"	50.0189018249512	-110.721000671387
168	"Fort St John Airport"	"Fort Saint John"	"Canada"	56.2380981445312	-120.73999786377
169	"Sioux Lookout Airport"	"Sioux Lookout"	"Canada"	50.113899230957	-91.9052963256836
170	"Pangnirtung Airport"	"Pangnirtung"	"Canada"	66.1449966431	-65.7136001587
171	"Earlton (Timiskaming Regional) Airport"	"Earlton"	"Canada"	47.6974006546	-79.8473453522
172	"Prince George Airport"	"Prince George"	"Canada"	53.8894004822	-122.679000854
173	"Northwest Regional Airport Terrace-Kitimat"	"Terrace"	"Canada"	54.468498	-128.576009
174	"London Airport"	"London"	"Canada"	43.035599	-81.1539
175	"Abbotsford Airport"	"Abbotsford"	"Canada"	49.0252990722656	-122.361000061035
176	"Whitehorse / Erik Nielsen International Airport"	"Whitehorse"	"Canada"	60.7095985413	-135.067001343
177	"North Bay Jack Garland Airport"	"North Bay"	"Canada"	46.363602	-79.422798
178	"Calgary International Airport"	"Calgary"	"Canada"	51.113899231	-114.019996643
179	"Smithers Airport"	"Smithers"	"Canada"	54.8246994018555	-127.182998657227
180	"Fort Nelson Airport"	"Fort Nelson"	"Canada"	58.8363990784	-122.597000122
181	"Penticton Airport"	"Penticton"	"Canada"	49.4631004333496	-119.601997375488
182	"Charlottetown Airport"	"Charlottetown"	"Canada"	46.2900009155273	-63.1211013793945
183	"Taloyoak Airport"	"Spence Bay"	"Canada"	69.5466995239	-93.5766983032
184	"Victoria International Airport"	"Victoria"	"Canada"	48.646900177	-123.426002502
185	"Lynn Lake Airport"	"Lynn Lake"	"Canada"	56.863899230957	-101.075996398926
186	"Swift Current Airport"	"Swift Current"	"Canada"	50.2919006348	-107.691001892
187	"Churchill Airport"	"Churchill"	"Canada"	58.739200592041	-94.0650024414062
188	"Goose Bay Airport"	"Goose Bay"	"Canada"	53.3191986084	-60.4258003235
189	"St. John's International Airport"	"St. John's"	"Canada"	47.618598938	-52.7518997192
190	"Kapuskasing Airport"	"Kapuskasing"	"Canada"	49.4138984680176	-82.4674987792969
191	"Armstrong Airport"	"Armstrong"	"Canada"	50.2902984619141	-88.9096984863281
192	"Mont Joli Airport"	"Mont Joli"	"Canada"	48.6086006164551	-68.2080993652344
193	"Lester B. Pearson International Airport"	"Toronto"	"Canada"	43.6772003174	-79.6305999756
194	"Downsview Airport"	"Toronto"	"Canada"	43.7425003051758	-79.4655990600586
195	"Gore Bay Manitoulin Airport"	"Gore Bay"	"Canada"	45.8852996826172	-82.5678024291992
196	"Yellowknife Airport"	"Yellowknife"	"Canada"	62.4627990722656	-114.440002441406
197	"Slave Lake Airport"	"Slave Lake"	"Canada"	55.2930984497	-114.777000427
198	"Sandspit Airport"	"Sandspit"	"Canada"	53.2542991638	-131.813995361
199	"Chris Hadfield Airport"	"Sarnia"	"Canada"	42.9994010925293	-82.3088989257812
200	"Port Hardy Airport"	"Port Hardy"	"Canada"	50.6805992126465	-127.366996765137
201	"Whitecourt Airport"	"Whitecourt"	"Canada"	54.1439018249512	-115.787002563477
202	"Sept-Îles Airport"	"Sept-iles"	"Canada"	50.2233009338379	-66.2656021118164
203	"Teslin Airport"	"Teslin"	"Canada"	60.1727981567383	-132.74299621582
204	"CFB Greenwood"	"Greenwood"	"Canada"	44.9844017028809	-64.9169006347656
205	"Faro Airport"	"Faro"	"Canada"	62.2075004577637	-133.376007080078
206	"Fort Mcpherson Airport"	"Fort Mcpherson"	"Canada"	67.4075012207031	-134.860992431641
207	"Blida Airport"	"Blida"	"Algeria"	36.5036010742188	2.81416988372803
208	"Bou Saada Airport"	"Bou Saada"	"Algeria"	35.3325004577637	4.20638990402222
209	"Soummam Airport"	"Bejaja"	"Algeria"	36.7120018005	5.06992006302
210	"Houari Boumediene Airport"	"Algier"	"Algeria"	36.6910018920898	3.21540999412537
211	"Djanet Inedbirene Airport"	"Djanet"	"Algeria"	24.292801	9.45244
212	"Boufarik Airport"	"Boufarik"	"Algeria"	36.545799	2.87611
213	"Reggane Airport"	"Reggan"	"Algeria"	26.7101	0.285647
214	"Illizi Takhamalt Airport"	"Illizi"	"Algeria"	26.7234992981	8.62265014648
215	"Ain Oussera Airport"	"Ain Oussera"	"Algeria"	35.5253982543945	2.8787100315094
216	"Aguenar – Hadj Bey Akhamok Airport"	"Tamanrasset"	"Algeria"	22.8115005493	5.45107984543
217	"Jijel Ferhat Abbas Airport"	"Jijel"	"Algeria"	36.7951011658	5.87361001968
218	"Mecheria Airport"	"Mecheria"	"Algeria"	33.535900116	-0.242353007197
219	"Relizane Airport"	"Relizane"	"Algeria"	35.752201	0.626272
220	"Rabah Bitat Airport"	"Annaba"	"Algeria"	36.822201	7.809174
221	"Mohamed Boudiaf International Airport"	"Constantine"	"Algeria"	36.2760009765625	6.62038993835449
222	"Cheikh Larbi Tébessi Airport"	"Tebessa"	"Algeria"	35.4315986633	8.12071990967
224	"Hassi R'Mel Airport"	"Tilrempt"	"Algeria"	32.9304008483887	3.31153988838196
225	"Bou Chekif Airport"	"Tiaret"	"Algeria"	35.3410987854	1.46315002441
226	"Bou Sfer Airport"	"Bou Sfer"	"Algeria"	35.7354011535645	-0.805388987064362
227	"Tindouf Airport"	"Tindouf"	"Algeria"	27.7003993988	-8.1670999527
228	"Ech Cheliff Airport"	"Ech-cheliff"	"Algeria"	36.2126998901	1.33176994324
229	"Tafaraoui Airport"	"Oran"	"Algeria"	35.5424003601074	-0.532278001308441
230	"Zenata – Messali El Hadj Airport"	"Tlemcen"	"Algeria"	35.0167007446	-1.45000004768
231	"Es Senia Airport"	"Oran"	"Algeria"	35.6239013672	-0.621182978153
232	"Sidi Bel Abbes Airport"	"Sidi Bel Abbes"	"Algeria"	35.1717987061	-0.593275010586
233	"Ghriss Airport"	"Ghriss"	"Algeria"	35.2076988220215	0.147141993045807
234	"Touat Cheikh Sidi Mohamed Belkebir Airport"	"Adrar"	"Algeria"	27.8376007080078	-0.186414003372192
235	"Biskra Airport"	"Biskra"	"Algeria"	34.7933006287	5.73823022842
236	"El Golea Airport"	"El Golea"	"Algeria"	30.5713005065918	2.85959005355835
237	"Noumérat - Moufdi Zakaria Airport"	"Ghardaia"	"Algeria"	32.3841018676758	3.79411005973816
238	"Oued Irara Airport"	"Hassi Messaoud"	"Algeria"	31.6730003357	6.14043998718
239	"In Salah Airport"	"In Salah"	"Algeria"	27.2509994507	2.51202011108
240	"Touggourt Sidi Madhi Airport"	"Touggourt"	"Algeria"	33.067798614502	6.0886697769165
241	"Laghouat Airport"	"Laghouat"	"Algeria"	33.7644004822	2.92833995819
242	"Timimoun Airport"	"Timimoun"	"Algeria"	29.2371006012	0.276033014059
243	"Ain el Beida Airport"	"Ouargla"	"Algeria"	31.917200088501	5.41277980804443
244	"In Aménas Airport"	"Zarzaitine"	"Algeria"	28.0515	9.64291
245	"Cadjehoun Airport"	"Cotonou"	"Benin"	6.3572301864624	2.38435006141663
246	"Ouagadougou Airport"	"Ouagadougou"	"Burkina Faso"	12.3532	-1.51242
247	"Bobo Dioulasso Airport"	"Bobo-dioulasso"	"Burkina Faso"	11.1600999832153	-4.33096981048584
248	"Kotoka International Airport"	"Accra"	"Ghana"	5.60518980026245	-0.166786000132561
249	"Tamale Airport"	"Tamale"	"Ghana"	9.55718994140625	-0.863214015960693
250	"Wa Airport"	"Wa"	"Ghana"	10.0826997756958	-2.50768995285034
251	"Sunyani Airport"	"Sunyani"	"Ghana"	7.36183023452759	-2.32875990867615
252	"Takoradi Airport"	"Takoradi"	"Ghana"	4.8960599899292	-1.77476000785828
253	"Port Bouet Airport"	"Abidjan"	"Cote d'Ivoire"	5.261390209198	-3.9262900352478
254	"Bouaké Airport"	"Bouake"	"Cote d'Ivoire"	7.73880004882812	-5.07366991043091
255	"Daloa Airport"	"Daloa"	"Cote d'Ivoire"	6.79280996322632	-6.47318983078003
256	"Korhogo Airport"	"Korhogo"	"Cote d'Ivoire"	9.38718032837	-5.55666017532
257	"Man Airport"	"Man"	"Cote d'Ivoire"	7.27206993103027	-7.58735990524292
258	"San Pedro Airport"	"San Pedro"	"Cote d'Ivoire"	4.74671983718872	-6.66082000732422
259	"Yamoussoukro Airport"	"Yamoussoukro"	"Cote d'Ivoire"	6.9031701088	-5.36558008194
260	"Nnamdi Azikiwe International Airport"	"Abuja"	"Nigeria"	9.00679016113281	7.26316976547241
261	"Akure Airport"	"Akure"	"Nigeria"	7.24673986434937	5.30101013183594
262	"Benin Airport"	"Benin"	"Nigeria"	6.31697988510132	5.59950017929077
263	"Margaret Ekpo International Airport"	"Calabar"	"Nigeria"	4.97601985931396	8.34720039367676
264	"Akanu Ibiam International Airport"	"Enugu"	"Nigeria"	6.47426986694336	7.56196022033691
265	"Gusau Airport"	"Gusau"	"Nigeria"	12.1717	6.69611
266	"Ibadan Airport"	"Ibadan"	"Nigeria"	7.36246013641357	3.97832989692688
267	"Ilorin International Airport"	"Ilorin"	"Nigeria"	8.44021034240723	4.49391984939575
268	"Yakubu Gowon Airport"	"Jos"	"Nigeria"	9.63982963562012	8.86905002593994
269	"Kaduna Airport"	"Kaduna"	"Nigeria"	10.6960000991821	7.32010984420776
270	"Mallam Aminu International Airport"	"Kano"	"Nigeria"	12.0476	8.52462
271	"Maiduguri International Airport"	"Maiduguri"	"Nigeria"	11.855299949646	13.0809001922607
272	"Makurdi Airport"	"Makurdi"	"Nigeria"	7.70388	8.61394
273	"Murtala Muhammed International Airport"	"Lagos"	"Nigeria"	6.57737016677856	3.32116007804871
274	"Minna Airport"	"Minna"	"Nigeria"	9.65217018127441	6.4622597694397
275	"Port Harcourt International Airport"	"Port Hartcourt"	"Nigeria"	5.01549005508423	6.94959020614624
276	"Sadiq Abubakar III International Airport"	"Sokoto"	"Nigeria"	12.9162998199463	5.20719003677368
277	"Yola Airport"	"Yola"	"Nigeria"	9.25755023956299	12.4303998947144
278	"Zaria Airport"	"Zaria"	"Nigeria"	11.1302	7.68581
279	"Maradi Airport"	"Maradi"	"Niger"	13.5024995803833	7.12674999237061
280	"Diori Hamani International Airport"	"Niamey"	"Niger"	13.4815	2.18361
281	"Tahoua Airport"	"Tahoua"	"Niger"	14.8756999969482	5.26535987854004
282	"Mano Dayak International Airport"	"Agadez"	"Niger"	16.9659996032715	8.00010967254639
283	"Dirkou Airport"	"Dirkou"	"Niger"	18.9687004089355	12.8687000274658
284	"Diffa Airport"	"Diffa"	"Niger"	13.3729000091553	12.6267004013062
285	"Zinder Airport"	"Zinder"	"Niger"	13.7790002822876	8.98375988006592
286	"Monastir Habib Bourguiba International Airport"	"Monastir"	"Tunisia"	35.7580986022949	10.7546997070312
287	"Tunis Carthage International Airport"	"Tunis"	"Tunisia"	36.851001739502	10.2271995544434
288	"Sidi Ahmed Air Base"	"Bizerte"	"Tunisia"	37.245398	9.79145
289	"Remada Air Base"	"Remada"	"Tunisia"	32.3061981201172	10.3821001052856
290	"Gafsa Ksar International Airport"	"Gafsa"	"Tunisia"	34.4220008850098	8.82250022888184
291	"Gabès Matmata International Airport"	"Gabes"	"Tunisia"	33.8768997192383	10.1033000946045
292	"Borj El Amri Airport"	"Bordj El Amri"	"Tunisia"	36.7212982177734	9.94314956665039
293	"Djerba Zarzis International Airport"	"Djerba"	"Tunisia"	33.875	10.7755002975464
294	"El Borma Airport"	"El Borma"	"Tunisia"	31.7042999267578	9.25461959838867
295	"Sfax Thyna International Airport"	"Sfax"	"Tunisia"	34.7179985046387	10.6909999847412
296	"Tozeur Nefta International Airport"	"Tozeur"	"Tunisia"	33.9397010803223	8.11056041717529
297	"Niamtougou International Airport"	"Niatougou"	"Togo"	9.76733016967773	1.09124994277954
298	"Lomé-Tokoin Airport"	"Lome"	"Togo"	6.16560983657837	1.25451004505157
299	"Antwerp International Airport (Deurne)"	"Antwerp"	"Belgium"	51.1893997192	4.46027994156
300	"Beauvechain Air Base"	"Beauvechain"	"Belgium"	50.7585983276367	4.76833009719849
301	"Kleine Brogel Air Base"	"Kleine Brogel"	"Belgium"	51.168301	5.47
302	"Brussels Airport"	"Brussels"	"Belgium"	50.9014015198	4.48443984985
303	"Jehonville Air Base"	"Bertrix"	"Belgium"	49.8917007446289	5.22388982772827
304	"Brussels South Charleroi Airport"	"Charleroi"	"Belgium"	50.459202	4.45382
305	"Chièvres Air Base"	"Chievres"	"Belgium"	50.5758018493652	3.83100008964539
306	"Koksijde Air Base"	"Koksijde"	"Belgium"	51.0903015136719	2.65278005599976
307	"Florennes Air Base"	"Florennes"	"Belgium"	50.2433013916	4.64583015442
308	"Wevelgem Airport"	"Kortrijk-vevelgem"	"Belgium"	50.817199707	3.20472002029
309	"Liège Airport"	"Liege"	"Belgium"	50.6374015808105	5.4432201385498
310	"Ostend-Bruges International Airport"	"Ostend"	"Belgium"	51.1988983154	2.8622200489
311	"Zutendaal Air Base"	"Zutendaal"	"Belgium"	50.9474983215332	5.59055995941162
312	"Brustem Airfield Sint Truiden"	"Sint-truiden"	"Belgium"	50.791901	5.20167
313	"Saint Hubert Air Base"	"St.-hubert"	"Belgium"	50.0344009399414	5.44081020355225
314	"Ursel Air Base"	"Ursel"	"Belgium"	51.1441993713379	3.47555994987488
315	"Weelde Air Base"	"Weelde"	"Belgium"	51.3947982788086	4.96018981933594
316	"Zoersel (Oostmalle) Airfield"	"Zoersel"	"Belgium"	51.264702	4.75333
317	"Flugplatz Bautzen"	"Bautzen"	"Germany"	51.193611	14.519722
318	"Altenburg-Nobitz Airport"	"Altenburg"	"Germany"	50.981945	12.506389
319	"Dessau Airfield"	"Dessau"	"Germany"	51.831694	12.190962
320	"Eisenhüttenstadt Airfield"	"Eisenhuettenstadt"	"Germany"	52.195856	14.58753
322	"Großenhain Airport"	"Suhl"	"Germany"	51.3080558776855	13.5555562973022
323	"Merseburg Airport"	"Muehlhausen"	"Germany"	51.3630556	11.9408333
324	"Halle-Oppin Airport"	"Halle"	"Germany"	51.552223	12.053889
325	"Riesa-Göhlis Airport"	"Riesa"	"Germany"	51.2936096191	13.3561105728
326	"Rechlin-Lärz Airport"	"Rechlin-laerz"	"Germany"	53.306388855	12.7522220612
327	"Strausberg Airport"	"Strausberg"	"Germany"	52.5805549621582	13.9166669845581
328	"Schönhagen Airport"	"Schoenhagen"	"Germany"	52.203609	13.156389
329	"Barth Airport"	"Barth"	"Germany"	54.338253	12.710515
330	"Jena-Schöngleina Airfield"	"Jena"	"Germany"	50.915279	11.714444
331	"Kyritz Airport"	"Kyritz"	"Germany"	52.918888092041	12.4252777099609
332	"Magdeburg \City\ Airport"	"Magdeburg"	"Germany"	52.073612	11.626389
333	"Rothenburg/Görlitz Airport"	"Rothenburg/ol"	"Germany"	51.3633346557617	14.9499998092651
334	"Anklam Airfield"	"Anklam"	"Germany"	53.832779	13.668611
335	"Cottbus-Drewitz Airport"	"Cottbus"	"Germany"	51.889442	14.531944
336	"Kamenz Airport"	"Kamenz"	"Germany"	51.2969436645508	14.1274995803833
337	"Berlin-Schönefeld Airport"	"Berlin"	"Germany"	52.380001	13.5225
338	"Dresden Airport"	"Dresden"	"Germany"	51.1328010559082	13.7672004699707
339	"Erfurt Airport"	"Erfurt"	"Germany"	50.9798011779785	10.9581003189087
340	"Frankfurt am Main Airport"	"Frankfurt"	"Germany"	50.033333	8.570556
341	"Münster Osnabrück Airport"	"Munster"	"Germany"	52.134601593	7.68483018875
342	"Hamburg Airport"	"Hamburg"	"Germany"	53.630401611328	9.9882297515869
343	"Berlin-Tempelhof International Airport"	"Berlin"	"Germany"	52.4729995727539	13.4039001464844
344	"Cologne Bonn Airport"	"Cologne"	"Germany"	50.8658981323	7.1427397728
345	"Düsseldorf Airport"	"Duesseldorf"	"Germany"	51.289501	6.76678
346	"Munich Airport"	"Munich"	"Germany"	48.353802	11.7861
347	"Nuremberg Airport"	"Nuernberg"	"Germany"	49.498699	11.078056
348	"Leipzig/Halle Airport"	"Leipzig"	"Germany"	51.423889	12.236389
349	"Saarbrücken Airport"	"Saarbruecken"	"Germany"	49.2145996094	7.10950994492
350	"Stuttgart Airport"	"Stuttgart"	"Germany"	48.6898994446	9.22196006775
351	"Berlin-Tegel Airport"	"Berlin"	"Germany"	52.5597	13.2877
352	"Hannover Airport"	"Hannover"	"Germany"	52.461101532	9.68507957458
353	"Bremen Airport"	"Bremen"	"Germany"	53.0475006104	8.78666973114
354	"Frankfurt-Egelsbach Airport"	"Egelsbach"	"Germany"	49.959999	8.645833
355	"Frankfurt-Hahn Airport"	"Hahn"	"Germany"	49.9487	7.26389
356	"Mannheim-City Airport"	"Mannheim"	"Germany"	49.473057	8.514167
357	"Allendorf/Eder Airport"	"Allendorf"	"Germany"	51.0349998474121	8.680832862854
358	"Worms Airport"	"Worms"	"Germany"	49.606945	8.368333
359	"Mainz-Finthen Airport"	"Mainz"	"Germany"	49.967499	8.147222
360	"Eisenach-Kindel Airport"	"Eisenach"	"Germany"	50.991604	10.47973
361	"Siegerland Airport"	"Siegerland"	"Germany"	50.7076988220215	8.08296966552734
362	"Hamburg-Finkenwerder Airport"	"Hamburg"	"Germany"	53.5352783203125	9.83555603027344
363	"Kiel-Holtenau Airport"	"Kiel"	"Germany"	54.3794441223145	10.1452779769897
364	"Lübeck Blankensee Airport"	"Luebeck"	"Germany"	53.8054008484	10.7192001343
365	"Flugplatz Dahlemer Binz"	"Dahlemer Binz"	"Germany"	50.405555725	6.5288891792
366	"Meinerzhagen Airport"	"Meinerzhagen"	"Germany"	51.0999984741211	7.59999990463257
367	"Arnsberg-Menden Airport"	"Arnsberg"	"Germany"	51.4838905334473	7.89833307266235
368	"Essen Mulheim Airport"	"Essen"	"Germany"	51.4023017883301	6.93732976913452
369	"Bielefeld Airport"	"Bielefeld"	"Germany"	51.964722	8.544444
370	"Mönchengladbach Airport"	"Moenchengladbach"	"Germany"	51.230278	6.504444
371	"Paderborn Lippstadt Airport"	"Paderborn"	"Germany"	51.6141014099	8.61631965637
372	"Stadtlohn-Vreden Airport"	"Stadtlohn"	"Germany"	51.9958343505859	6.84055614471436
373	"Dortmund Airport"	"Dortmund"	"Germany"	51.5182991028	7.61223983765
374	"Augsburg Airport"	"Augsburg"	"Germany"	48.425278	10.931667
375	"Biberach a.d. Riß Airfield"	"Biberach"	"Germany"	48.111111	9.762778
376	"Eggenfelden Airport"	"Eggenfelden"	"Germany"	48.396110534668	12.7236108779907
377	"Mindelheim-Mattsies Airfield"	"Mindelheim"	"Germany"	48.106945	10.525
378	"Oberpfaffenhofen Airport"	"Oberpfaffenhofen"	"Germany"	48.081402	11.2831
379	"Straubing Airport"	"Straubing"	"Germany"	48.9008331298828	12.5166673660278
380	"Vilshofen Airport"	"Vilshofen"	"Germany"	48.6349983215332	13.1955556869507
381	"Leutkirch-Unterzeil Airport"	"Leutkirch"	"Germany"	47.8588905334473	10.0141668319702
382	"Friedrichshafen Airport"	"Friedrichshafen"	"Germany"	47.6712989807	9.51148986816
383	"Schwerin Parchim Airport"	"Parchim"	"Germany"	53.426998	11.7834
384	"Stendal-Borstel Airport"	"Stendal"	"Germany"	52.6288871765137	11.8186111450195
385	"Aalen-Heidenheim/Elchingen Airport"	"Aalen-heidenheim"	"Germany"	48.7777786254883	10.2647218704224
386	"Bayreuth Airport"	"Bayreuth"	"Germany"	49.985001	11.64
387	"Burg Feuerstein Airport"	"Burg Feuerstein"	"Germany"	49.794166564941	11.133610725403
388	"Hof-Plauen Airport"	"Hof"	"Germany"	50.2886123657227	11.8563890457153
389	"Haßfurt-Schweinfurt Airport"	"Hassfurt"	"Germany"	50.0180549621582	10.5294437408447
390	"Koblenz-Winningen Airfield"	"Koblenz"	"Germany"	50.325558	7.528611
391	"Trier-Föhren Airport"	"Trier"	"Germany"	49.863888	6.7875
392	"Speyer Airfield"	"Speyer"	"Germany"	49.304722	8.451389
393	"Zweibrücken Airport"	"Zweibruecken"	"Germany"	49.2094	7.40056
394	"Donaueschingen-Villingen Airport"	"Donaueschingen"	"Germany"	47.9733314514	8.52222156525
395	"Freiburg i. Br. Airport"	"Freiburg"	"Germany"	48.0227775574	7.83249998093
396	"Mengen-Hohentengen Airport"	"Mengen"	"Germany"	48.0538902282715	9.37277793884277
397	"Adolf Würth Airport"	"Schwaebisch Hall"	"Germany"	49.1183319092	9.78388881683
398	"Finsterwalde/Schacksdorf Airport"	"Soest"	"Germany"	51.607498	13.743611
399	"Braunschweig-Wolfsburg Airport"	"Braunschweig"	"Germany"	52.319199	10.5561
400	"Kassel-Calden Airport"	"Kassel"	"Germany"	51.417273	9.384967
401	"Hildesheim Airport"	"Hildesheim"	"Germany"	52.1813888549805	9.94638919830322
402	"Bremerhaven Airport"	"Bremerhaven"	"Germany"	53.506943	8.572778
403	"Emden Airport"	"Emden"	"Germany"	53.391109	7.2275
404	"Leer-Papenburg Airport"	"Leer"	"Germany"	53.2719421386719	7.44166707992554
405	"Wilhelmshaven-Mariensiel Airport"	"Wilhelmshaven"	"Germany"	53.5022201538086	8.05222225189209
406	"Borkum Airport"	"Borkum"	"Germany"	53.59639	6.709167
407	"Norderney Airport"	"Norderney"	"Germany"	53.7069435119629	7.23000001907349
408	"Flensburg-Schäferhaus Airport"	"Flensburg"	"Germany"	54.7733345031738	9.3788890838623
409	"Rendsburg-Schachtholm Airport"	"Rendsburg"	"Germany"	54.2200012207031	9.59944438934326
410	"Westerland Sylt Airport"	"Westerland"	"Germany"	54.9132003784	8.34047031403
411	"Ämari Air Base"	"Armari Air Force Base"	"Estonia"	59.2602996826172	24.2084999084473
412	"Kärdla Airport"	"Kardla"	"Estonia"	58.9907989501953	22.8306999206543
413	"Kuressaare Airport"	"Kuressaare"	"Estonia"	58.2299003601074	22.50950050354
414	"Pärnu Airport"	"Parnu"	"Estonia"	58.4189987182617	24.4727993011475
415	"Lennart Meri Tallinn Airport"	"Tallinn-ulemiste International"	"Estonia"	59.4132995605	24.8327999115
416	"Tartu Airport"	"Tartu"	"Estonia"	58.3074989319	26.6903991699
417	"Enontekio Airport"	"Enontekio"	"Finland"	68.362602233887	23.424299240112
418	"Eura Airport"	"Eura"	"Finland"	61.1161003112793	22.2014007568359
419	"Halli Airport"	"Halli"	"Finland"	61.856039	24.786686
420	"Helsinki Malmi Airport"	"Helsinki"	"Finland"	60.2546005249023	25.0428009033203
421	"Helsinki Vantaa Airport"	"Helsinki"	"Finland"	60.317199707031	24.963300704956
422	"Hameenkyro Airport"	"Hameenkyro"	"Finland"	61.6897010803223	23.0736999511719
423	"Hanko Airport"	"Hanko"	"Finland"	59.8488998413086	23.0835990905762
424	"Hyvinkää Airfield"	"Hyvinkaa"	"Finland"	60.6543998718	24.8810997009
425	"Kiikala Airport"	"Kikala"	"Finland"	60.4625015259	23.6525001526
426	"Immola Airport"	"Immola"	"Finland"	61.2491989135742	28.9036998748779
427	"Kitee Airport"	"Kitee"	"Finland"	62.1661	30.073601
428	"Ivalo Airport"	"Ivalo"	"Finland"	68.607299804688	27.405300140381
429	"Joensuu Airport"	"Joensuu"	"Finland"	62.662899017334	29.607500076294
430	"Jyvaskyla Airport"	"Jyvaskyla"	"Finland"	62.399501800537	25.678300857544
431	"Kauhava Airport"	"Kauhava"	"Finland"	63.127102	23.051399
432	"Kemi-Tornio Airport"	"Kemi"	"Finland"	65.778701782227	24.582099914551
433	"Kajaani Airport"	"Kajaani"	"Finland"	64.285499572754	27.692399978638
434	"Kauhajoki Airport"	"Kauhajoki"	"Finland"	62.4625015259	22.3931007385
435	"Kokkola-Pietarsaari Airport"	"Kruunupyy"	"Finland"	63.721199035645	23.143100738525
436	"Kemijarvi Airport"	"Kemijarvi"	"Finland"	66.712898	27.156799
437	"Kuusamo Airport"	"Kuusamo"	"Finland"	65.987602233887	29.239400863647
438	"Kittilä Airport"	"Kittila"	"Finland"	67.700996398926	24.846799850464
439	"Kuopio Airport"	"Kuopio"	"Finland"	63.007099151611	27.797800064087
440	"Lahti Vesivehmaa Airport"	"Vesivehmaa"	"Finland"	61.144199	25.693501
441	"Lappeenranta Airport"	"Lappeenranta"	"Finland"	61.044601	28.144743
442	"Mariehamn Airport"	"Mariehamn"	"Finland"	60.122200012207	19.898199081421
443	"Menkijarvi Airport"	"Menkijarvi"	"Finland"	62.9467010498047	23.5188999176025
444	"Mikkeli Airport"	"Mikkeli"	"Finland"	61.6866	27.201799
445	"Nummela Airport"	"Nummela"	"Finland"	60.3339004517	24.2964000702
446	"Oulu Airport"	"Oulu"	"Finland"	64.930099487305	25.354600906372
447	"Piikajarvi Airport"	"Piikajarvi"	"Finland"	61.2456016540527	22.1933994293213
448	"Pori Airport"	"Pori"	"Finland"	61.461700439453	21.799999237061
449	"Pudasjärvi Airport"	"Pudasjarvi"	"Finland"	65.4021987915	26.9468994141
450	"Pyhäsalmi Airport"	"Pyhasalmi"	"Finland"	63.7318992615	25.9263000488
451	"Raahe Pattijoki Airport"	"Pattijoki"	"Finland"	64.6881027222	24.6958007812
452	"Rantasalmi Airport"	"Rantasalmi"	"Finland"	62.0654983521	28.3565006256
453	"Rovaniemi Airport"	"Rovaniemi"	"Finland"	66.564796447754	25.830400466919
454	"Rayskala Airport"	"Rayskala"	"Finland"	60.744701385498	24.1077995300293
455	"Savonlinna Airport"	"Savonlinna"	"Finland"	61.943099975586	28.945100784302
456	"Selanpaa Airport"	"Selanpaa"	"Finland"	61.0624008178711	26.798900604248
457	"Sodankyla Airport"	"Sodankyla"	"Finland"	67.3949966431	26.6191005707
458	"Tampere-Pirkkala Airport"	"Tampere"	"Finland"	61.414100646973	23.604400634766
459	"Teisko Airport"	"Teisko"	"Finland"	61.7733	24.027
460	"Turku Airport"	"Turku"	"Finland"	60.514099121094	22.262800216675
461	"Utti Air Base"	"Utti"	"Finland"	60.89640045166	26.938400268555
462	"Vaasa Airport"	"Vaasa"	"Finland"	63.050701141357	21.762199401855
463	"Varkaus Airport"	"Varkaus"	"Finland"	62.171100616455	27.868600845337
464	"Ylivieska Airfield"	"Ylivieska-raudaskyla"	"Finland"	64.0547222	24.7252778
465	"Belfast International Airport"	"Belfast"	"United Kingdom"	54.6575012207	-6.21582984924
466	"St Angelo Airport"	"Enniskillen"	"United Kingdom"	54.3988990783691	-7.65166997909546
467	"George Best Belfast City Airport"	"Belfast"	"United Kingdom"	54.6180992126465	-5.87249994277954
468	"City of Derry Airport"	"Londonderry"	"United Kingdom"	55.0428009033203	-7.16110992431641
469	"Birmingham International Airport"	"Birmingham"	"United Kingdom"	52.4538993835	-1.74802994728
470	"Coventry Airport"	"Coventry"	"United Kingdom"	52.3697013855	-1.47971999645
471	"Leicester Airport"	"Leicester"	"United Kingdom"	52.6077995300293	-1.03193998336792
472	"Gloucestershire Airport"	"Golouchestershire"	"United Kingdom"	51.8941993713379	-2.16722011566162
474	"Wolverhampton Halfpenny Green Airport"	"Halfpenny Green"	"United Kingdom"	52.5175018310547	-2.25943994522095
475	"Cotswold Airport"	"Pailton"	"United Kingdom"	51.668095	-2.05694
476	"Turweston Airport"	"Turweston"	"United Kingdom"	52.0407981873	-1.09555995464
477	"Wellesbourne Mountford Airport"	"Wellesbourne"	"United Kingdom"	52.1921997070312	-1.61443996429443
478	"Manchester Airport"	"Manchester"	"United Kingdom"	53.3536987304688	-2.27495002746582
479	"Manchester Woodford Airport"	"Woodfort"	"United Kingdom"	53.3381	-2.14889
480	"Royal Marines Base Chivenor Airport"	"Chivenor"	"United Kingdom"	51.0872001647949	-4.15034008026123
481	"Newquay Cornwall Airport"	"Newquai"	"United Kingdom"	50.440601348877	-4.99540996551514
482	"RAF Lyneham"	"Lyneham"	"United Kingdom"	51.5051	-1.99343
483	"MoD Boscombe Down Airport"	"Boscombe Down"	"United Kingdom"	51.1521987915039	-1.74741005897522
484	"RNAS Culdrose"	"Culdrose"	"United Kingdom"	50.0861015319824	-5.25571012496948
485	"MoD St. Athan"	"St. Athan"	"United Kingdom"	51.4048	-3.43575
486	"RNAS Yeovilton"	"Yeovilton"	"United Kingdom"	51.0093994140625	-2.63881993293762
487	"Haverfordwest Airport"	"Haverfordwest"	"United Kingdom"	51.8330993652344	-4.96111011505127
488	"Cardiff International Airport"	"Cardiff"	"United Kingdom"	51.3967018127441	-3.34332990646362
489	"Swansea Airport"	"Swansea"	"United Kingdom"	51.6053009033203	-4.06783008575439
490	"Bristol Airport"	"Bristol"	"United Kingdom"	51.382702	-2.71909
491	"Liverpool John Lennon Airport"	"Liverpool"	"United Kingdom"	53.3335990905762	-2.8497200012207
492	"London Luton Airport"	"London"	"United Kingdom"	51.874698638916	-0.368333011865616
493	"Plymouth City Airport"	"Plymouth"	"United Kingdom"	50.422798	-4.10583
494	"Bournemouth Airport"	"Bournemouth"	"United Kingdom"	50.7799987792969	-1.84249997138977
495	"Southampton Airport"	"Southampton"	"United Kingdom"	50.9502983093262	-1.35679996013641
496	"Lasham Airport"	"Lasham"	"United Kingdom"	51.187198638916	-1.03349995613098
497	"Alderney Airport"	"Alderney"	"Guernsey"	49.706104	-2.21472
498	"Guernsey Airport"	"Guernsey"	"Guernsey"	49.435001373291	-2.60196995735168
499	"Jersey Airport"	"Jersey"	"Jersey"	49.2079010009766	-2.1955099105835
500	"Shoreham Airport"	"Shoreham By Sea"	"United Kingdom"	50.835602	-0.297222
501	"London Biggin Hill Airport"	"Biggin Hill"	"United Kingdom"	51.3307991028	0.0324999988079
502	"London Gatwick Airport"	"London"	"United Kingdom"	51.148102	-0.190278
503	"London City Airport"	"London"	"United Kingdom"	51.505299	0.055278
504	"Farnborough Airport"	"Farnborough"	"United Kingdom"	51.2757987976	-0.776332974434
505	"Chalgrove Airport"	"Chalsgrove"	"United Kingdom"	51.6761016845703	-1.0808299779892
506	"Blackbushe Airport"	"Blackbushe"	"United Kingdom"	51.3238983154297	-0.847500026226044
507	"London Heathrow Airport"	"London"	"United Kingdom"	51.4706	-0.461941
508	"Southend Airport"	"Southend"	"United Kingdom"	51.5713996887207	0.695555984973907
509	"Lydd Airport"	"Lydd"	"United Kingdom"	50.9561004638672	0.939167022705078
510	"Kent International Airport"	"Manston"	"United Kingdom"	51.342201	1.34611
511	"Brough Airport"	"Brough"	"United Kingdom"	53.7197	-0.566333
512	"Carlisle Airport"	"Carlisle"	"United Kingdom"	54.9375	-2.80917000770569
513	"Retford Gamston Airport"	"Repton"	"United Kingdom"	53.2806015014648	-0.951389014720917
514	"Blackpool International Airport"	"Blackpool"	"United Kingdom"	53.7717018127441	-3.02860999107361
515	"Humberside Airport"	"Humberside"	"United Kingdom"	53.5744018554688	-0.350832998752594
516	"Barrow Walney Island Airport"	"Barrow Island"	"United Kingdom"	54.1286111	-3.2675
517	"Leeds Bradford Airport"	"Leeds"	"United Kingdom"	53.8658981323242	-1.66057002544403
518	"Warton Airport"	"Warton"	"United Kingdom"	53.745098	-2.88306
519	"Hawarden Airport"	"Hawarden"	"United Kingdom"	53.1781005859375	-2.97778010368347
520	"Isle of Man Airport"	"Isle Of Man"	"Isle of Man"	54.0833015441895	-4.6238899230957
521	"Newcastle Airport"	"Newcastle"	"United Kingdom"	55.0374984741211	-1.69166994094849
522	"Durham Tees Valley Airport"	"Teesside"	"United Kingdom"	54.5092010498047	-1.42940998077393
523	"East Midlands Airport"	"East Midlands"	"United Kingdom"	52.8311004639	-1.32806003094
524	"Llanbedr Airport"	"Llanbedr"	"United Kingdom"	52.811698913574	-4.1235799789429
525	"RAF Ternhill"	"Ternhill"	"United Kingdom"	52.8712005615234	-2.53356003761292
526	"RAF Shawbury"	"Shawbury"	"United Kingdom"	52.7981986999512	-2.66804003715515
528	"RAF Woodvale"	"Woodvale"	"United Kingdom"	53.5816	-3.05552
529	"Kirkwall Airport"	"Kirkwall"	"United Kingdom"	58.9578018188477	-2.90499997138977
530	"Sumburgh Airport"	"Sumburgh"	"United Kingdom"	59.8788986206055	-1.29556000232697
531	"Wick Airport"	"Wick"	"United Kingdom"	58.4589004516602	-3.09306001663208
532	"Aberdeen Dyce Airport"	"Aberdeen"	"United Kingdom"	57.2019004821777	-2.19777989387512
533	"Inverness Airport"	"Inverness"	"United Kingdom"	57.5424995422363	-4.0475001335144
534	"Glasgow International Airport"	"Glasgow"	"United Kingdom"	55.8718986511	-4.43306016922
535	"Edinburgh Airport"	"Edinburgh"	"United Kingdom"	55.9500007629395	-3.37249994277954
536	"Islay Airport"	"Islay"	"United Kingdom"	55.6819000244141	-6.25666999816895
537	"Glasgow Prestwick Airport"	"Prestwick"	"United Kingdom"	55.5093994140625	-4.586669921875
538	"Benbecula Airport"	"Benbecula"	"United Kingdom"	57.4810981750488	-7.36278009414673
539	"Scatsta Airport"	"Scatsta"	"United Kingdom"	60.4328002929688	-1.29611003398895
540	"Dundee Airport"	"Dundee"	"United Kingdom"	56.4524993896484	-3.02583003044128
541	"Stornoway Airport"	"Stornoway"	"United Kingdom"	58.2155990600586	-6.33111000061035
542	"Tiree Airport"	"Tiree"	"United Kingdom"	56.4991989135742	-6.86917018890381
543	"RAF Leuchars"	"Leuchars"	"United Kingdom"	56.3728981018066	-2.86843991279602
544	"RAF Lossiemouth"	"Lossiemouth"	"United Kingdom"	57.7052001953125	-3.33916997909546
545	"Cambridge Airport"	"Cambridge"	"United Kingdom"	52.205002	0.175
546	"Peterborough Business Airport"	"Peterborough"	"United Kingdom"	52.4681015014648	-0.251111000776291
547	"Norwich International Airport"	"Norwich"	"United Kingdom"	52.6758003235	1.28278005123
548	"London Stansted Airport"	"London"	"United Kingdom"	51.8849983215	0.234999999404
549	"North Weald Airport"	"North Weald"	"United Kingdom"	51.721698761	0.154166996479
550	"Sheffield City Heliport"	"Fowlmere"	"United Kingdom"	53.394299	-1.38849
551	"Cranfield Airport"	"Cranfield"	"United Kingdom"	52.0722007751	-0.616666972637
552	"Exeter International Airport"	"Exeter"	"United Kingdom"	50.7344017028809	-3.41388988494873
553	"Bristol Filton Airport"	"Bristol"	"United Kingdom"	51.5194015503	-2.59083008766
554	"Oxford (Kidlington) Airport"	"Oxford"	"United Kingdom"	51.8368988037	-1.32000005245
555	"RAF Benson"	"Benson"	"United Kingdom"	51.6164016724	-1.09582996368
556	"RAF Lakenheath"	"Lakenheath"	"United Kingdom"	52.4093017578	0.56099998951
557	"RAF Mildenhall"	"Mildenhall"	"United Kingdom"	52.3619003295898	0.486405998468399
558	"RAF Wattisham"	"Wattisham"	"United Kingdom"	52.1273002625	0.956264019012
559	"RAF Wyton"	"Wyton"	"United Kingdom"	52.3572006226	-0.107832998037
560	"RAF Fairford"	"Fairford"	"United Kingdom"	51.6822013855	-1.79003000259
561	"RAF Brize Norton"	"Brize Norton"	"United Kingdom"	51.75	-1.58362
562	"RAF Odiham"	"Odiham"	"United Kingdom"	51.2341003418	-0.94282501936
563	"DCAE Cosford Air Base"	"Cosford"	"United Kingdom"	52.639999	-2.30558
564	"RAF Northolt"	"Northolt"	"United Kingdom"	51.5530014038	-0.418166995049
565	"RAF Coningsby"	"Coningsby"	"United Kingdom"	53.0929985046	-0.166014000773
566	"RAF Dishforth"	"Dishforth"	"United Kingdom"	54.1371994019	-1.42025005817
567	"Leeming Airport"	"Leeming"	"United Kingdom"	54.2924	-1.5354
568	"Leeds East Airport"	"Church Fenton"	"United Kingdom"	53.834301	-1.1955
569	"RAF Honington"	"Honington"	"United Kingdom"	52.342601776123	0.772939026355743
570	"RAF Cottesmore"	"Cottesmore"	"United Kingdom"	52.735699	-0.648769
571	"RAF Scampton"	"Scampton"	"United Kingdom"	53.307800293	-0.550832986832
572	"RAF Wittering"	"Wittering"	"United Kingdom"	52.612598	-0.476453
573	"RAF Linton-On-Ouse"	"Linton-on-ouse"	"United Kingdom"	54.0489006042	-1.2527500391
574	"RAF Waddington"	"Waddington"	"United Kingdom"	53.1661987305	-0.523810982704
575	"RAF Topcliffe"	"Topcliffe"	"United Kingdom"	54.2055015564	-1.3820899725
576	"RAF Cranwell"	"Cranwell"	"United Kingdom"	53.0303001404	-0.48324200511
577	"RAF Barkston Heath"	"Barkston Heath"	"United Kingdom"	52.9622001648	-0.561625003815
578	"RAF Marham"	"Marham"	"United Kingdom"	52.648395	0.550692
579	"Mount Pleasant Airport"	"Mount Pleasant"	"Falkland Islands"	-51.8227996826172	-58.4472007751465
580	"Amsterdam Airport Schiphol"	"Amsterdam"	"Netherlands"	52.308601	4.76389
581	"Budel Airfield Kempen"	"Weert"	"Netherlands"	51.255299	5.60139
582	"Maastricht Aachen Airport"	"Maastricht"	"Netherlands"	50.911701	5.77014
583	"Deelen Air Base"	"Deelen"	"Netherlands"	52.0606	5.87306
584	"Drachten Airport"	"Drachten"	"Netherlands"	53.1192016602	6.12972021103
585	"Eindhoven Airport"	"Eindhoven"	"Netherlands"	51.4500999451	5.37452983856
586	"Eelde Airport"	"Groningen"	"Netherlands"	53.1197013855	6.57944011688
587	"Gilze Rijen Air Base"	"Gilze-rijen"	"Netherlands"	51.5674018859863	4.93182992935181
588	"De Kooy Airport"	"De Kooy"	"Netherlands"	52.9234008789062	4.78062009811401
589	"Lelystad Airport"	"Lelystad"	"Netherlands"	52.4603	5.52722
590	"Leeuwarden Air Base"	"Leeuwarden"	"Netherlands"	53.2285995483398	5.76056003570557
591	"Rotterdam The Hague Airport"	"Rotterdam"	"Netherlands"	51.956902	4.43722
592	"Soesterberg Air Base"	"Soesterberg"	"Netherlands"	52.1273002625	5.27618980408
593	"Twente Airport"	"Enschede"	"Netherlands"	52.275833	6.889167
594	"Valkenburg Naval Air Base"	"Valkenburg"	"Netherlands"	52.1660995483	4.41794013977
595	"Woensdrecht Air Base"	"Woensdrecht"	"Netherlands"	51.4491	4.34203
596	"Cork Airport"	"Cork"	"Ireland"	51.8413009643555	-8.49110984802246
597	"Galway Airport"	"Galway"	"Ireland"	53.3002014160156	-8.94159030914307
599	"Dublin Airport"	"Dublin"	"Ireland"	53.421299	-6.27007
600	"Ireland West Knock Airport"	"Connaught"	"Ireland"	53.9103012084961	-8.81849002838135
601	"Kerry Airport"	"Kerry"	"Ireland"	52.1809005737305	-9.52377986907959
602	"Casement Air Base"	"Casement"	"Ireland"	53.301700592	-6.45133018494
603	"Shannon Airport"	"Shannon"	"Ireland"	52.702	-8.92482
604	"Sligo Airport"	"Sligo"	"Ireland"	54.280200958252	-8.5992097854614
605	"Waterford Airport"	"Waterford"	"Ireland"	52.187198638916	-7.08695983886719
607	"Aarhus Airport"	"Aarhus"	"Denmark"	56.2999992371	10.6190004349
608	"Billund Airport"	"Billund"	"Denmark"	55.7402992249	9.15178012848
609	"Copenhagen Kastrup Airport"	"Copenhagen"	"Denmark"	55.617900848389	12.656000137329
610	"Esbjerg Airport"	"Esbjerg"	"Denmark"	55.525902	8.5534
611	"Grønholt Hillerød Airport"	"Gronholt"	"Denmark"	55.9413986206055	12.3822002410889
612	"Karup Airport"	"Karup"	"Denmark"	56.2975006103516	9.12462997436523
613	"Læsø Airport"	"Laeso"	"Denmark"	57.2771987915039	11.0001001358032
614	"Lolland Falster Maribo Airport"	"Maribo"	"Denmark"	54.699299	11.4401
615	"Odense Airport"	"Odense"	"Denmark"	55.4766998291016	10.3309001922607
616	"Kruså-Padborg Airport"	"Krusa-padborg"	"Denmark"	54.8703002929688	9.27900981903076
617	"Copenhagen Roskilde Airport"	"Copenhagen"	"Denmark"	55.5856018066406	12.1314001083374
618	"Bornholm Airport"	"Ronne"	"Denmark"	55.0633010864258	14.7595996856689
619	"Sønderborg Airport"	"Soenderborg"	"Denmark"	54.9644012451172	9.79172992706299
621	"Skrydstrup Air Base"	"Skrydstrup"	"Denmark"	55.221048	9.26702
622	"Skive Airport"	"Skive"	"Denmark"	56.5502014160156	9.17298030853271
623	"Thisted Airport"	"Thisted"	"Denmark"	57.0688018798828	8.70522022247314
624	"Kolding Vamdrup Airfield"	"Kolding"	"Denmark"	55.436298	9.33092
625	"Vagar Airport"	"Vagar"	"Faroe Islands"	62.0635986328125	-7.27721977233887
626	"Vesthimmerlands Flyveplads"	"Vesthimmerland"	"Denmark"	56.846901	9.45861
627	"Stauning Airport"	"Stauning"	"Denmark"	55.9901008605957	8.35391044616699
628	"Aalborg Airport"	"Aalborg"	"Denmark"	57.0927589138	9.84924316406
629	"Luxembourg-Findel International Airport"	"Luxemburg"	"Luxembourg"	49.6233333	6.2044444
630	"Ålesund Airport"	"Alesund"	"Norway"	62.5625	6.11969995498657
631	"Andøya Airport"	"Andoya"	"Norway"	69.292503356934	16.144199371338
632	"Alta Airport"	"Alta"	"Norway"	69.976097106934	23.371700286865
633	"Bømoen Airport"	"Voss"	"Norway"	60.6389007568359	6.50150012969971
634	"Brønnøysund Airport"	"Bronnoysund"	"Norway"	65.461097717285	12.217499732971
635	"Bodø Airport"	"Bodo"	"Norway"	67.2692031860352	14.3653001785278
636	"Bergen Airport Flesland"	"Bergen"	"Norway"	60.29339981	5.218140125
637	"Båtsfjord Airport"	"Batsfjord"	"Norway"	70.60050201416	29.691400527954
638	"Kristiansand Airport"	"Kristiansand"	"Norway"	58.204201	8.08537
639	"Geilo Airport Dagali"	"Geilo"	"Norway"	60.4173011779785	8.51834964752197
640	"Bardufoss Airport"	"Bardufoss"	"Norway"	69.055801391602	18.540399551392
641	"Harstad/Narvik Airport, Evenes"	"Harstad/Narvik"	"Norway"	68.491302490234	16.678100585938
642	"Leirin Airport"	"Fagernes"	"Norway"	61.015598297119	9.2880601882935
643	"Florø Airport"	"Floro"	"Norway"	61.583599090576	5.0247201919556
644	"Oslo Lufthavn"	"Oslo"	"Norway"	60.121	11.0502
645	"Haugesund Airport"	"Haugesund"	"Norway"	59.34529876709	5.2083601951599
646	"Hasvik Airport"	"Hasvik"	"Norway"	70.486701965332	22.139699935913
647	"Kristiansund Airport (Kvernberget)"	"Kristiansund"	"Norway"	63.111801147461	7.824520111084
648	"Kjeller Airport"	"Kjeller"	"Norway"	59.9692993164	11.0361003876
649	"Kirkenes Airport (Høybuktmoen)"	"Kirkenes"	"Norway"	69.725799560547	29.891300201416
650	"Lista Airport"	"Farsund"	"Norway"	58.0994987487793	6.62604999542236
651	"Molde Airport"	"Molde"	"Norway"	62.744701385498	7.2624998092651
652	"Mosjøen Airport (Kjærstad)"	"Mosjoen"	"Norway"	65.783996582031	13.214900016785
653	"Banak Airport"	"Lakselv"	"Norway"	70.068801879883	24.973499298096
654	"Notodden Airport"	"Notodden"	"Norway"	59.565701	9.21222
655	"Ørland Airport"	"Orland"	"Norway"	63.6988983154297	9.60400009155273
656	"Røros Airport"	"Roros"	"Norway"	62.578399658203	11.342300415039
657	"Moss Airport, Rygge"	"Rygge"	"Norway"	59.378817	10.785439
658	"Svalbard Airport, Longyear"	"Svalbard"	"Norway"	78.246101379395	15.465600013733
659	"Skien Airport"	"Skien"	"Norway"	59.185001373291	9.56694030761719
660	"Stord Airport"	"Stord"	"Norway"	59.7919006347656	5.34084987640381
662	"Sandnessjøen Airport (Stokka)"	"Sandnessjoen"	"Norway"	65.956802368164	12.468899726868
663	"Tromsø Airport,"	"Tromso"	"Norway"	69.6832962036133	18.9188995361328
664	"Sandefjord Airport, Torp"	"Sandefjord"	"Norway"	59.1866989136	10.258600235
665	"Trondheim Airport Værnes"	"Trondheim"	"Norway"	63.4578018	10.9239998
666	"Stavanger Airport Sola"	"Stavanger"	"Norway"	58.876701354	5.6377801895
667	"Babice Airport"	"Warsaw"	"Poland"	52.2685012817383	20.9109992980957
668	"Gdańsk Lech Wałęsa Airport"	"Gdansk"	"Poland"	54.3776016235352	18.4661998748779
669	"Kraków John Paul II International Airport"	"Krakow"	"Poland"	50.077702	19.7848
670	"Muchowiec Airport"	"Katowice"	"Poland"	50.2380981445312	19.034200668335
671	"Katowice International Airport"	"Katowice"	"Poland"	50.4743	19.08
673	"Mielec Airport"	"Mielec"	"Poland"	50.3222999572754	21.4620990753174
674	"Poznań-Ławica Airport"	"Poznan"	"Poland"	52.4210014343	16.8262996674
675	"Rzeszów-Jasionka Airport"	"Rzeszow"	"Poland"	50.1100006104	22.0189990997
676	"Szczecin-Goleniów \Solidarność\ Airport"	"Szczecin"	"Poland"	53.5847015381	14.9021997452
677	"Redzikowo Air Base"	"Slupsk"	"Poland"	54.4789009094238	17.1075000762939
678	"Swidwin Military Air Base"	"Shapaja"	"Poland"	53.790599823	15.8262996674
679	"Warsaw Chopin Airport"	"Warsaw"	"Poland"	52.1656990051	20.9671001434
680	"Copernicus Wrocław Airport"	"Wroclaw"	"Poland"	51.1026992798	16.885799408
681	"Zielona Góra-Babimost Airport"	"Zielona Gora"	"Poland"	52.1385002136	15.7986001968
682	"Malmen Air Base"	"Linkoeping"	"Sweden"	58.4023017883301	15.5256996154785
683	"Bråvalla Air Base"	"Norrkoeping"	"Sweden"	58.6109008789062	16.1035995483398
684	"Uppsala Airport"	"Uppsala"	"Sweden"	59.8973007202148	17.5886001586914
685	"Ronneby Airport"	"Ronneby"	"Sweden"	56.266700744629	15.265000343323
686	"Råda Air Base"	"Rada"	"Sweden"	58.4981002807617	13.0531997680664
687	"Gothenburg-Landvetter Airport"	"Gothenborg"	"Sweden"	57.662799835205	12.279800415039
688	"Jönköping Airport"	"Joenkoeping"	"Sweden"	57.7575988769531	14.068699836731
689	"Falköping Airport"	"Falkoping"	"Sweden"	58.1697998046875	13.5878000259399
690	"Lidköping-Hovby Airport"	"Lidkoping"	"Sweden"	58.4655	13.1744
691	"Gothenburg City Airport"	"Gothenborg"	"Sweden"	57.7747	11.8704
692	"Skövde Airport"	"Skovde"	"Sweden"	58.4564018249512	13.9727001190186
693	"Trollhättan-Vänersborg Airport"	"Trollhattan"	"Sweden"	58.3180999755859	12.3450002670288
694	"Karlsborg Air Base"	"Karlsborg"	"Sweden"	58.513801574707	14.5071001052856
695	"Såtenäs Air Base"	"Satenas"	"Sweden"	58.426399230957	12.7144002914429
696	"Barkarby Airport"	"Stockholm"	"Sweden"	59.4144743644	17.8821372986
697	"Karlskoga Airport"	"Karlskoga"	"Sweden"	59.3459014892578	14.4959001541138
698	"Mora Airport"	"Mora"	"Sweden"	60.957901	14.5114
699	"Stockholm Skavsta Airport"	"Stockholm"	"Sweden"	58.7886009216309	16.9122009277344
700	"Arvika Airport"	"Arvika"	"Sweden"	59.6759	12.6394
701	"Emmaboda Airfield"	"Emmaboda"	"Sweden"	56.610802	15.6048
702	"Feringe Airport"	"Ljungby"	"Sweden"	56.9502983093	13.9216995239
703	"Kristianstad Airport"	"Kristianstad"	"Sweden"	55.9216995239258	14.0854997634888
704	"Landskrona Airport"	"Landskrona"	"Sweden"	55.9459991455078	12.8699998855591
705	"Oskarshamn Airport"	"Oskarshamn"	"Sweden"	57.350498	16.497999
706	"Anderstorp Airport"	"Anderstorp"	"Sweden"	57.2641983032227	13.5993995666504
707	"Kalmar Airport"	"Kalkmar"	"Sweden"	56.6855010986328	16.2875995635986
708	"Malmö Sturup Airport"	"Malmoe"	"Sweden"	55.536305364	13.3761978149
709	"Halmstad Airport"	"Halmstad"	"Sweden"	56.6911010742188	12.8201999664307
710	"Hagshult Air Base"	"Hagshult"	"Sweden"	57.292198	14.1372
711	"Växjö Kronoberg Airport"	"Vaxjo"	"Sweden"	56.9291000366211	14.7279996871948
712	"Hallviken Airport"	"Hallviken"	"Sweden"	63.7383003234863	15.4582996368408
713	"Hedlanda Airport"	"Hede"	"Sweden"	62.4089012146	13.7472000122
714	"Sveg Airport"	"Sveg"	"Sweden"	62.0477981567383	14.4229001998901
715	"Gällivare Airport"	"Gallivare"	"Sweden"	67.1324005126953	20.8145999908447
716	"Hudiksvall Airport"	"Hudiksvall"	"Sweden"	61.7681007385	17.0806999207
717	"Jokkmokk Airport"	"Jokkmokk"	"Sweden"	66.4962005615234	20.1471996307373
718	"Kramfors Sollefteå Airport"	"Kramfors"	"Sweden"	63.0485992431641	17.7688999176025
719	"Lycksele Airport"	"Lycksele"	"Sweden"	64.5483016967773	18.7161998748779
720	"Optand Airport"	"Optand"	"Sweden"	63.1286010742188	14.8028001785278
721	"Sundsvall-Härnösand Airport"	"Sundsvall"	"Sweden"	62.5280990600586	17.4438991546631
722	"Örnsköldsvik Airport"	"Ornskoldsvik"	"Sweden"	63.4082984924316	18.9899997711182
723	"Piteå Airport"	"Pitea"	"Sweden"	65.3983001708984	21.260799407959
724	"Kiruna Airport"	"Kiruna"	"Sweden"	67.821998596191	20.336799621582
725	"Orsa Airport"	"Orsa"	"Sweden"	61.189998626709	14.7125997543335
726	"Skellefteå Airport"	"Skelleftea"	"Sweden"	64.6248016357422	21.0769004821777
727	"Sättna Airport"	"Sattna"	"Sweden"	62.4814	17.002899
728	"Umeå Airport"	"Umea"	"Sweden"	63.791801452637	20.282800674438
729	"Vilhelmina Airport"	"Vilhelmina"	"Sweden"	64.5791015625	16.8335990905762
730	"Arvidsjaur Airport"	"Arvidsjaur"	"Sweden"	65.5903015136719	19.2819004058838
731	"Örebro Airport"	"Orebro"	"Sweden"	59.2237014770508	15.0380001068115
733	"Stockholm Västerås Airport"	"Vasteras"	"Sweden"	59.5894012451172	16.6336002349854
734	"Luleå Airport"	"Lulea"	"Sweden"	65.543800354004	22.121999740601
735	"Vidsel Air Base"	"Vidsel"	"Sweden"	65.8752975463867	20.1499004364014
736	"Arboga Airport"	"Arboga"	"Sweden"	59.3866004943848	15.9240999221802
737	"Stockholm-Arlanda Airport"	"Stockholm"	"Sweden"	59.651901245117	17.918600082397
738	"Stockholm-Bromma Airport"	"Stockholm"	"Sweden"	59.3544006347656	17.9416999816895
739	"Borlange Airport"	"Borlange"	"Sweden"	60.4220008850098	15.5151996612549
740	"Hultsfred Airport"	"Hultsfred"	"Sweden"	57.525799	15.8233
741	"Gävle Sandviken Airport"	"Gavle"	"Sweden"	60.5932998657227	16.9514007568359
742	"Linköping City Airport"	"Linkoeping"	"Sweden"	58.4062004089	15.6805000305
743	"Norrköping Airport"	"Norrkoeping"	"Sweden"	58.5862998962402	16.2506008148193
745	"Eskilstuna Airport"	"Eskilstuna"	"Sweden"	59.3511009216309	16.7084007263184
746	"Visby Airport"	"Visby"	"Sweden"	57.662799835205	18.346200942993
748	"Kalixfors Airport"	"Kalixfors"	"Sweden"	67.7648010253906	20.2572002410889
750	"Spangdahlem Air Base"	"Spangdahlem"	"Germany"	49.9726982117	6.69250011444
751	"Ramstein Air Base"	"Ramstein"	"Germany"	49.4369010925293	7.60027980804443
753	"[Duplicate] Giebelstadt Army Air Field"	"Giebelstadt"	"Germany"	49.6481018066	9.96648979187
754	"Bückeburg Air Base"	"Brueckeburg"	"Germany"	52.2785	9.08217
755	"Celle Airport"	"Celle"	"Germany"	52.5912017822266	10.0221004486084
756	"Rheine Bentlage Air Base"	"Rheine-brentlange"	"Germany"	52.291199	7.387
757	"Fritzlar Airport"	"Fritzlar"	"Germany"	51.1146	9.286
758	"Laupheim Air Base"	"Laupheim"	"Germany"	48.220299	9.91002
759	"Mendig Airfield"	"Mendig"	"Germany"	50.366001	7.31533
760	"Niederstetten Army Air Base"	"Niederstetten"	"Germany"	49.391945	9.958889
761	"Roth Airport"	"Roth"	"Germany"	49.2174987792969	11.1001996994019
762	"Fassberg Air Base"	"Fassberg"	"Germany"	52.919399	10.185827
763	"Grafenwohr Army Air Field"	"Grafenwoehr"	"Germany"	49.6986999511719	11.9401998519897
764	"Hanau Army Air Field"	"Hanau"	"Germany"	50.169201	8.96159
765	"Hohenfels Army Air Field"	"Hohenfels"	"Germany"	49.2181015014648	11.8360996246338
766	"Flugplatz Kitzingen"	"Kitzingen"	"Germany"	49.743099	10.2006
767	"Nordholz Naval Airbase"	"Nordholz"	"Germany"	53.7677001953	8.65849971771
768	"Diepholz Air Base"	"Diepholz"	"Germany"	52.585556	8.342222
769	"Geilenkirchen Air Base"	"Geilenkirchen"	"Germany"	50.9608	6.04242
770	"Hohn Air Base"	"Hohn"	"Germany"	54.312199	9.53817
771	"Jever Air Base"	"Jever"	"Germany"	53.533501	7.88867
772	"Rostock-Laage Airport"	"Laage"	"Germany"	53.9182014465	12.2783002853
773	"Nörvenich Air Base"	"Noervenich"	"Germany"	50.8312	6.65817
774	"Schleswig Air Base"	"Schleswig"	"Germany"	54.459301	9.51633
775	"Wittmundhafen Airport"	"Wittmundhafen"	"Germany"	53.5477981567383	7.66732978820801
777	"Wunstorf Air Base"	"Wunstorf"	"Germany"	52.457298	9.42717
778	"Vilseck Army Air Field"	"Vilseck"	"Germany"	49.6335983276367	11.7672004699707
779	"Coleman Army Air Field"	"Coleman"	"Germany"	49.5635986328125	8.4633903503418
780	"Wiesbaden Army Airfield"	"Wiesbaden"	"Germany"	50.0498008728027	8.32540035247803
781	"Landsberg Lech Air Base"	"Landsberg"	"Germany"	48.070599	10.906
782	"Büchel Air Base"	"Buechel"	"Germany"	50.1738014221	7.06333017349
783	"Erding Airport"	"Erding"	"Germany"	48.3222999572754	11.9486999511719
784	"Fürstenfeldbruck Air Base"	"Fuerstenfeldbruck"	"Germany"	48.205555	11.266944
785	"Holzdorf Air Base"	"Holzdorf"	"Germany"	51.767799	13.1677
786	"Ingolstadt Manching Airport"	"Ingolstadt"	"Germany"	48.7156982421875	11.5340003967285
787	"Lechfeld Air Base"	"Lechfeld"	"Germany"	48.185504	10.8612
788	"Neuburg AFB"	"Neuburg"	"Germany"	48.710999	11.2115
789	"Gütersloh Air Base"	"Guetersloh"	"Germany"	51.922798	8.30633
790	"Alexander Bay Airport"	"Alexander Bay"	"South Africa"	-28.575001	16.5333
791	"Aggeneys Airport"	"Aggeneys"	"South Africa"	-29.2817993164062	18.8138999938965
792	"Brakpan Airport"	"Brakpan"	"South Africa"	-26.2385997772217	28.3017997741699
793	"Bisho Airport"	"Bisho"	"South Africa"	-32.8970985413	27.2791004181
794	"Bram Fischer International Airport"	"Bloemfontein"	"South Africa"	-29.0926990509	26.302400589
795	"Bethlehem Airport"	"Bethlehem"	"South Africa"	-28.2483997345	28.3360996246
796	"Hendrik Potgieter Airport"	"Bothaville"	"South Africa"	-27.3668003082275	26.6291999816895
797	"Cape Town International Airport"	"Cape Town"	"South Africa"	-33.9648017883	18.6016998291
798	"Calvinia Airport"	"Calvinia"	"South Africa"	-31.5002994537354	19.7259006500244
799	"King Shaka International Airport"	"Durban"	"South Africa"	-29.6144444444	31.1197222222
800	"Ben Schoeman Airport"	"East London"	"South Africa"	-33.0355987549	27.8258991241
801	"Ermelo Airport"	"Ermelo"	"South Africa"	-26.4955997467041	29.9797992706299
802	"Ficksburg Sentraoes Airport"	"Ficksburg"	"South Africa"	-28.8230991363525	27.908899307251
803	"Grand Central Airport"	"Johannesburg"	"South Africa"	-25.9862995148	28.1401004791
804	"George Airport"	"George"	"South Africa"	-34.0056	22.378902
806	"Graaff Reinet Airport"	"Graaff Reinet"	"South Africa"	-32.1935997009277	24.5414009094238
807	"Grahamstown Airport"	"Grahamstown"	"South Africa"	-33.2846984863281	26.4981002807617
808	"Greytown Airport"	"Greytown"	"South Africa"	-29.1219997406	30.5867004395
809	"Harmony Airport"	"Harmony"	"South Africa"	-28.0786991119385	26.8612003326416
810	"Harrismith Airport"	"Harrismith"	"South Africa"	-28.2350997924805	29.1061992645264
811	"Hoedspruit Air Force Base Airport"	"Hoedspruit"	"South Africa"	-24.3686008453	31.0487003326
812	"Gariep Dam Airport"	"Hendrik Verwoerddam"	"South Africa"	-30.5622005462646	25.528299331665
813	"OR Tambo International Airport"	"Johannesburg"	"South Africa"	-26.1392	28.246
814	"P C Pelser Airport"	"Klerksdorp"	"South Africa"	-26.8710994720459	26.7180004119873
815	"Kimberley Airport"	"Kimberley"	"South Africa"	-28.8027992249	24.7651996613
816	"Krugersdorp Airport"	"Krugersdorp"	"South Africa"	-26.0808259199	27.7259149551
817	"Kroonstad Airport"	"Kroonstad"	"South Africa"	-27.6606006622314	27.3157997131348
818	"Johan Pienaar Airport"	"Kuruman"	"South Africa"	-27.4566993713379	23.4113998413086
819	"Kleinsee Airport"	"Kleinsee"	"South Africa"	-29.6884002686	17.0939998627
820	"Lanseria Airport"	"Johannesburg"	"South Africa"	-25.9384994507	27.9260997772
821	"Lichtenburg Airport"	"Lichtenburg"	"South Africa"	-26.1756992340088	26.1846008300781
822	"Makhado Air Force Base Airport"	"Lambertsbaai"	"South Africa"	-23.1599006652832	29.6965007781982
823	"Langebaanweg Airport"	"Langebaanweg"	"South Africa"	-32.9688987732	18.1602993011
824	"Ladysmith Airport"	"Ladysmith"	"South Africa"	-28.5816993713	29.7497005463
825	"Middelburg Airport"	"Middelburg"	"South Africa"	-25.6847991943359	29.4402008056641
827	"Margate Airport"	"Margate"	"South Africa"	-30.8574008942	30.343000412
828	"Marble Hall Airport"	"Marble Hall"	"South Africa"	-24.9890995025635	29.2831001281738
829	"Majuba Power Station Airport"	"Majuba Power Station"	"South Africa"	-27.0792999268	29.7784996033
831	"Riverside Airport"	"Malalane"	"South Africa"	-25.4300003052	31.5767002106
832	"Morningside Farm Airport"	"Musina"	"South Africa"	-25.7045001984	26.9090003967
833	"Mkuze Airport"	"Mkuze"	"South Africa"	-27.6261005401611	32.0443000793457
834	"Newcastle Airport"	"Newcastle"	"South Africa"	-27.7705993652	29.9769001007
835	"Nylstroom Airfield"	"Nylstroom"	"South Africa"	-24.6861000061035	28.4349002838135
836	"Overberg Airport"	"Overberg"	"South Africa"	-34.554901123	20.2506999969
837	"Oudtshoorn Airport"	"Oudtshoorn"	"South Africa"	-33.6069984436	22.188999176
838	"Port Elizabeth Airport"	"Port Elizabeth"	"South Africa"	-33.9849014282	25.6173000336
839	"Plettenberg Bay Airport"	"Plettenberg Bay"	"South Africa"	-34.0881601675	23.3287234306
840	"Hendrik Van Eck Airport"	"Phalaborwa"	"South Africa"	-23.9372005463	31.1553993225
841	"Pietersburg Municipal Airport"	"Polokwane"	"South Africa"	-23.9260997772	29.4843997955
842	"Port St Johns Airport"	"Port Saint Johns"	"South Africa"	-31.605899810791	29.5198001861572
843	"Pietermaritzburg Airport"	"Pietermaritzburg"	"South Africa"	-29.6490001678	30.3987007141
844	"Pilanesberg International Airport"	"Pilanesberg"	"South Africa"	-25.3337993622	27.1734008789
845	"Polokwane International Airport"	"Potgietersrus"	"South Africa"	-23.845269	29.458615
846	"Potchefstroom Airport"	"Potchefstroom"	"South Africa"	-26.670999527	27.0818996429
847	"Parys Airport"	"Parys"	"South Africa"	-26.8892993927002	27.5034008026123
848	"Queenstown Airport"	"Queenstown"	"South Africa"	-31.9202003479004	26.8822002410889
849	"Richards Bay Airport"	"Richard's Bay"	"South Africa"	-28.7409992218	32.0920982361
850	"Rustenburg Airport"	"Rustenburg"	"South Africa"	-25.6443004608	27.2710990906
851	"Robertson Airport"	"Robertson"	"South Africa"	-33.812198638916	19.9027996063232
852	"Springbok Airport"	"Springbok"	"South Africa"	-29.6893005371094	17.9395999908447
853	"Secunda Airport"	"Secunda"	"South Africa"	-26.52409935	29.1700992584
854	"Saldanha /Vredenburg Airport"	"Saldanha"	"South Africa"	-32.964099884	17.9692993164
855	"Springs Airfield"	"Springs"	"South Africa"	-26.2494004736	28.3982715607
856	"Swartkop Air Force Base"	"Swartkop"	"South Africa"	-25.8097000122	28.1646003723
857	"Sishen Airport"	"Sishen"	"South Africa"	-27.6485996246	22.9993000031
858	"Hendrik Swellengrebel Airport"	"Swellendam"	"South Africa"	-34.0481986999512	20.4745998382568
859	"Skukuza Airport"	"Skukuza"	"South Africa"	-24.960899353	31.5886993408
860	"Tommys Field Airport"	"Tommy's Field"	"South Africa"	-28.2600002288818	22.993200302124
861	"New Tempe Airport"	"Bloemfontein"	"South Africa"	-29.0328998565674	26.157600402832
862	"Tutuka Power Station Airport"	"Tutuka"	"South Africa"	-26.776599884	29.3388004303
863	"Tzaneen Airport"	"Tzaneen"	"South Africa"	-23.8243999481	30.3292999268
864	"Prince Mangosuthu Buthelezi Airport"	"Ulundi"	"South Africa"	-28.3206005096	31.4165000916
865	"Pierre Van Ryneveld Airport"	"Upington"	"South Africa"	-28.39909935	21.2602005005
866	"K. D. Matanzima Airport"	"Umtata"	"South Africa"	-31.5463631849	28.6733551025
867	"Vryburg Airport"	"Vryburg"	"South Africa"	-26.9824008942	24.7287998199
868	"Virginia Airport"	"Durban"	"South Africa"	-29.7705993652344	31.0583992004395
869	"Vredendal Airport"	"Vredendal"	"South Africa"	-31.6410007476807	18.5447998046875
870	"Vereeniging Airport"	"Vereeniging"	"South Africa"	-26.566400528	27.9608001709
871	"Wonderboom Airport"	"Pretoria"	"South Africa"	-25.6539	28.224199
872	"Witbank Airport"	"Witbank"	"South Africa"	-25.8323001862	29.1919994354
873	"Waterkloof Air Force Base"	"Waterkloof"	"South Africa"	-25.8299999237	28.2224998474
874	"Welkom Airport"	"Welkom"	"South Africa"	-27.9968245111	26.6633338928
875	"Ysterplaat Air Force Base"	"Ysterplaat"	"South Africa"	-33.9001998901367	18.4983005523682
876	"Zeerust Airport"	"Zeerust"	"South Africa"	-25.5990009307861	26.0422992706299
877	"Francistown Airport"	"Francistown"	"Botswana"	-21.1595993041992	27.4745006561279
878	"Jwaneng Airport"	"Jwaneng"	"Botswana"	-24.6023006439209	24.6909999847412
879	"Kasane Airport"	"Kasane"	"Botswana"	-17.8328990936279	25.1623992919922
880	"Maun Airport"	"Maun"	"Botswana"	-19.9726009368896	23.4311008453369
881	"Sir Seretse Khama International Airport"	"Gaberone"	"Botswana"	-24.555201	25.9182
882	"Selebi Phikwe Airport"	"Selebi-phikwe"	"Botswana"	-22.0583	27.8288
883	"Maya-Maya Airport"	"Brazzaville"	"Congo (Brazzaville)"	-4.25169992446899	15.2530002593994
884	"Owando Airport"	"Owando"	"Congo (Kinshasa)"	-0.531350016593933	15.9500999450684
885	"Ouesso Airport"	"Ouesso"	"Congo (Kinshasa)"	1.61599004269	16.0379009247
886	"Pointe Noire Airport"	"Pointe-noire"	"Congo (Brazzaville)"	-4.81603002548218	11.8865995407104
887	"Matsapha Airport"	"Manzini"	"Swaziland"	-26.5289993286133	31.3075008392334
888	"Bangui M'Poko International Airport"	"Bangui"	"Central African Republic"	4.39847993850708	18.5188007354736
889	"Berbérati Airport"	"Berberati"	"Central African Republic"	4.22158002853394	15.7863998413086
890	"Bata Airport"	"Bata"	"Equatorial Guinea"	1.90547001361847	9.80568027496338
891	"Malabo Airport"	"Malabo"	"Equatorial Guinea"	3.75527000427246	8.70872020721436
892	"RAF Ascension Island"	"Wide Awake"	"Saint Helena"	-7.9696	-14.3937
893	"Sir Seewoosagur Ramgoolam International Airport"	"Plaisance"	"Mauritius"	-20.430201	57.683601
894	"Sir Charles Gaetan Duval Airport"	"Rodriguez Island"	"Mauritius"	-19.7577	63.361
895	"Diego Garcia Naval Support Facility"	"Diego Garcia Island"	"British Indian Ocean Territory"	-7.31327	72.411102
896	"Tiko Airport"	"Tiko"	"Cameroon"	4.08919000626	9.3605298996
897	"Douala International Airport"	"Douala"	"Cameroon"	4.0060801506	9.71947956085
898	"Salak Airport"	"Maroua"	"Cameroon"	10.4513998031616	14.257399559021
899	"Foumban Nkounja Airport"	"Foumban"	"Cameroon"	5.63691997528076	10.7508001327515
900	"N'Gaoundéré Airport"	"N'gaoundere"	"Cameroon"	7.35700988769531	13.5592002868652
901	"Garoua International Airport"	"Garoua"	"Cameroon"	9.33588981628418	13.3701000213623
902	"Bafoussam Airport"	"Bafoussam"	"Cameroon"	5.53692007065	10.3545999527
903	"Bamenda Airport"	"Bamenda"	"Cameroon"	6.03923988342285	10.1225996017456
904	"Yaoundé Airport"	"Yaounde"	"Cameroon"	3.83604001998901	11.5235004425049
905	"Kasompe Airport"	"Kasompe"	"Zambia"	-12.572799682617	27.893899917603
906	"Livingstone Airport"	"Livingstone"	"Zambia"	-17.8218002319336	25.8227005004883
907	"Kenneth Kaunda International Airport Lusaka"	"Lusaka"	"Zambia"	-15.3308000565	28.4526004791
908	"Mfuwe Airport"	"Mfuwe"	"Zambia"	-13.2588996887207	31.9365997314453
909	"Mongu Airport"	"Mongu"	"Zambia"	-15.2545003890991	23.1623001098633
910	"Simon Mwansa Kapwepwe International Airport"	"Ndola"	"Zambia"	-12.998100280762	28.66489982605
911	"Southdowns Airport"	"Southdowns"	"Zambia"	-12.9005002975464	28.1499004364014
912	"Prince Said Ibrahim International Airport"	"Moroni"	"Comoros"	-11.5337	43.2719
913	"Mohéli Bandar Es Eslam Airport"	"Moheli"	"Comoros"	-12.2981004714966	43.7663993835449
914	"Ouani Airport"	"Anjouan"	"Comoros"	-12.1316995620728	44.4303016662598
915	"Dzaoudzi Pamandzi International Airport"	"Dzaoudzi"	"Mayotte"	-12.8046998977661	45.2811012268066
916	"Roland Garros Airport"	"St.-denis"	"Reunion"	-20.8871002197266	55.5102996826172
917	"Pierrefonds Airport"	"St.-pierre"	"Reunion"	-21.3208999633789	55.4249992370605
918	"Ivato Airport"	"Antananarivo"	"Madagascar"	-18.7969	47.478802
919	"Miandrivazo Airport"	"Miandrivazo"	"Madagascar"	-19.5627994537354	45.4508018493652
920	"Sainte Marie Airport"	"Sainte Marie"	"Madagascar"	-17.093900680542	49.8157997131348
921	"Toamasina Airport"	"Toamasina"	"Madagascar"	-18.1095008850098	49.3925018310547
922	"Morondava Airport"	"Morondava"	"Madagascar"	-20.2847003936768	44.3176002502441
923	"Arrachart Airport"	"Antsiranana"	"Madagascar"	-12.3493995666504	49.2916984558105
924	"Mananara Nord Airport"	"Mananara"	"Madagascar"	-16.1639003753662	49.7737998962402
925	"Andapa Airport"	"Andapa"	"Madagascar"	-14.6517000198364	49.6206016540527
926	"Ambilobe Airport"	"Ambilobe"	"Madagascar"	-13.1884002685547	48.9879989624023
927	"Antsirabato Airport"	"Antalaha"	"Madagascar"	-14.999400138855	50.3202018737793
928	"Analalava Airport"	"Analalava"	"Madagascar"	-14.6296997070312	47.763801574707
929	"Amborovy Airport"	"Mahajanga"	"Madagascar"	-15.6668417421	46.3512325287
930	"Fascene Airport"	"Nosy-be"	"Madagascar"	-13.3121004105	48.3148002625
931	"Besalampy Airport"	"Besalampy"	"Madagascar"	-16.7445302965	44.4824838638
932	"Maroantsetra Airport"	"Maroantsetra"	"Madagascar"	-15.4366998672485	49.6883010864258
933	"Sambava Airport"	"Sambava"	"Madagascar"	-14.2785997390747	50.1747016906738
934	"Vohimarina Airport"	"Vohemar"	"Madagascar"	-13.3758001327515	50.002799987793
935	"Ambalabe Airport"	"Antsohihy"	"Madagascar"	-14.8987998962402	47.9939002990723
936	"Ampampamena Airport"	"Ampampamena"	"Madagascar"	-13.484816	48.632702
937	"Tôlanaro Airport"	"Tolagnaro"	"Madagascar"	-25.0380992889404	46.9561004638672
938	"Fianarantsoa Airport"	"Fianarantsoa"	"Madagascar"	-21.4416007995605	47.1116981506348
939	"Farafangana Airport"	"Farafangana"	"Madagascar"	-22.8052997589111	47.8205986022949
940	"Manakara Airport"	"Manakara"	"Madagascar"	-22.1196994781494	48.0217018127441
941	"Mananjary Airport"	"Mananjary"	"Madagascar"	-21.2017993927002	48.3582992553711
942	"Morombe Airport"	"Morombe"	"Madagascar"	-21.7539005279541	43.3754997253418
943	"Toliara Airport"	"Toliara"	"Madagascar"	-23.3833999633789	43.7285003662109
944	"Mbanza Congo Airport"	"M'banza-congo"	"Angola"	-6.26989984512329	14.2469997406006
945	"Benguela Airport"	"Benguela"	"Angola"	-12.609000206	13.4036998749
946	"Cabinda Airport"	"Cabinda"	"Angola"	-5.59699010848999	12.1884002685547
948	"Nova Lisboa Airport"	"Huambo"	"Angola"	-12.8088998794556	15.7604999542236
949	"Kuito Airport"	"Kuito"	"Angola"	-12.404600143433	16.947399139404
950	"Lobito Airport"	"Lobito"	"Angola"	-12.3711996078491	13.536600112915
951	"Quatro de Fevereiro Airport"	"Luanda"	"Angola"	-8.85837	13.2312
952	"Malanje Airport"	"Malanje"	"Angola"	-9.52509021759033	16.3124008178711
953	"Menongue Airport"	"Menongue"	"Angola"	-14.657600402832	17.7198009490967
955	"Negage Airport"	"Negage"	"Angola"	-7.75450992584229	15.2876996994019
956	"Porto Amboim Airport"	"Porto Amboim"	"Angola"	-10.7220001220703	13.7655000686646
957	"Saurimo Airport"	"Saurimo"	"Angola"	-9.6890697479248	20.4319000244141
958	"Soyo Airport"	"Soyo"	"Angola"	-6.14108991622925	12.3718004226685
959	"Lubango Airport"	"Lubango"	"Angola"	-14.9246997833252	13.5749998092651
960	"Luena Airport"	"Luena"	"Angola"	-11.7680997848511	19.8976993560791
961	"Uige Airport"	"Uige"	"Angola"	-7.60306978225708	15.0277996063232
962	"Xangongo Airport"	"Xangongo"	"Angola"	-16.7553997039795	14.9652996063232
963	"Oyem Airport"	"Oyem"	"Gabon"	1.54311001300812	11.5813999176025
964	"Okondja Airport"	"Okondja"	"Gabon"	-0.665214002132416	13.6731004714966
965	"Lambarene Airport"	"Lambarene"	"Gabon"	-0.704388976097107	10.2456998825073
966	"Bitam Airport"	"Bitam"	"Gabon"	2.07563996315002	11.493200302124
967	"Port Gentil Airport"	"Port Gentil"	"Gabon"	-0.711739003658295	8.75438022613525
968	"Omboue Hopital Airport"	"Omboue Hospial"	"Gabon"	-1.57473003864288	9.2626895904541
969	"Makokou Airport"	"Makokou"	"Gabon"	0.579210996627808	12.8908996582031
970	"Libreville Leon M'ba International Airport"	"Libreville"	"Gabon"	0.458600014448	9.4122800827
971	"M'Vengue El Hadj Omar Bongo Ondimba International Airport"	"Franceville"	"Gabon"	-1.65615999698639	13.4379997253418
972	"Principe Airport"	"Principe"	"Sao Tome and Principe"	1.66294002532959	7.41173982620239
973	"São Tomé International Airport"	"Sao Tome"	"Sao Tome and Principe"	0.378174990415573	6.71215009689331
974	"Beira Airport"	"Beira"	"Mozambique"	-19.7964000701904	34.907600402832
976	"Inhambane Airport"	"Inhambane"	"Mozambique"	-23.8763999938965	35.4085006713867
977	"Lichinga Airport"	"Lichinga"	"Mozambique"	-13.274	35.2663
978	"Lumbo Airport"	"Lumbo"	"Mozambique"	-15.0331001282	40.6716995239
979	"Maputo Airport"	"Maputo"	"Mozambique"	-25.920799	32.572601
980	"Mueda Airport"	"Mueda"	"Mozambique"	-11.6729001998901	39.5630989074707
981	"Mocímboa da Praia Airport"	"Mocimboa Da Praia"	"Mozambique"	-11.3618001937866	40.3549003601074
982	"Marrupa Airport"	"Marrupa"	"Mozambique"	-13.2250995635986	37.5521011352539
983	"Nacala Airport"	"Nacala"	"Mozambique"	-14.4882001876831	40.7122001647949
984	"Nampula Airport"	"Nampula"	"Mozambique"	-15.1056003570557	39.2817993164062
985	"Pemba Airport"	"Pemba"	"Mozambique"	-12.9917621612549	40.5240135192871
986	"Quelimane Airport"	"Quelimane"	"Mozambique"	-17.8554992675781	36.8690986633301
987	"Songo Airport"	"Songo"	"Mozambique"	-15.6027002334595	32.7732009887695
988	"Chingozi Airport"	"Tete"	"Mozambique"	-16.1047992706299	33.6402015686035
989	"Ulongwe Airport"	"Ulongwe"	"Mozambique"	-14.7046003341675	34.3524017333984
990	"Vilankulo Airport"	"Vilankulu"	"Mozambique"	-22.0184001922607	35.3133010864258
991	"Alphonse Airport"	"Alphonse"	"Seychelles"	-7.00478	52.7262
992	"Desroches Airport"	"Desroches"	"Seychelles"	-5.6967	53.6558
993	"Farquhar Airport"	"Farquhar"	"Seychelles"	-10.1096	51.176102
994	"Seychelles International Airport"	"Mahe"	"Seychelles"	-4.67434	55.521801
995	"Praslin Airport"	"Praslin"	"Seychelles"	-4.31929016113281	55.6913986206055
996	"Coetivy Airport"	"Coetivy"	"Seychelles"	-7.13457	56.278198
997	"Abeche Airport"	"Abeche"	"Chad"	13.8470001220703	20.8442993164062
998	"Moundou Airport"	"Moundou"	"Chad"	8.62440967559814	16.0713996887207
999	"N'Djamena International Airport"	"N'djamena"	"Chad"	12.1337	15.034
1000	"Faya Largeau Airport"	"Faya-largeau"	"Chad"	17.9171009063721	19.1110992431641
1001	"Joshua Mqabuko Nkomo International Airport"	"Bulawayo"	"Zimbabwe"	-20.017401	28.617901
1002	"Charles Prince Airport"	"Harare"	"Zimbabwe"	-17.7516002655029	30.9246997833252
1003	"Buffalo Range Airport"	"Chiredzi"	"Zimbabwe"	-21.008101	31.5786
1004	"Victoria Falls International Airport"	"Victoria Falls"	"Zimbabwe"	-18.0958995819092	25.8390007019043
1005	"Robert Gabriel Mugabe International Airport"	"Harare"	"Zimbabwe"	-17.931801	31.0928
1006	"Kariba International Airport"	"Kariba"	"Zimbabwe"	-16.5198001861572	28.8850002288818
1007	"Mutoko Airport"	"Mutoko"	"Zimbabwe"	-17.4319000244141	32.1845016479492
1008	"Mutare Airport"	"Mutare"	"Zimbabwe"	-18.997499465942	32.627201080322
1009	"Masvingo International Airport"	"Masvingo"	"Zimbabwe"	-20.0552997589111	30.8591003417969
1010	"Zvishavane Airport"	"Zvishavane"	"Zimbabwe"	-20.2894992828369	30.0881996154785
1011	"Thornhill Air Base"	"Gwert"	"Zimbabwe"	-19.4363994598389	29.8619003295898
1012	"Hwange National Park Airport"	"Hwange National Park"	"Zimbabwe"	-18.6298999786377	27.0209999084473
1013	"Chileka International Airport"	"Blantyre"	"Malawi"	-15.6791000366211	34.9739990234375
1014	"Karonga Airport"	"Karonga"	"Malawi"	-9.95357036590576	33.8930015563965
1015	"Kasungu Airport"	"Kasungu"	"Malawi"	-13.0145998001099	33.4686012268066
1016	"Lilongwe International Airport"	"Lilongwe"	"Malawi"	-13.7894001007	33.78099823
1017	"Mzuzu Airport"	"Mzuzu"	"Malawi"	-11.4447002410889	34.0117988586426
1018	"Moshoeshoe I International Airport"	"Maseru"	"Lesotho"	-29.4622993469238	27.5524997711182
1019	"Mejametalana Airbase"	"Maseru"	"Lesotho"	-29.3041000366211	27.5034999847412
1020	"Ndjili International Airport"	"Kinshasa"	"Congo (Kinshasa)"	-4.38575	15.4446
1021	"Ndolo Airport"	"Kinshasa"	"Congo (Kinshasa)"	-4.32666015625	15.327500343323
1022	"Muanda Airport"	"Muanda"	"Congo (Kinshasa)"	-5.93086004257202	12.3517999649048
1023	"Kitona Base Airport"	"Kitona Base"	"Congo (Kinshasa)"	-5.91805982589722	12.447699546814
1024	"Bandundu Airport"	"Bandoundu"	"Congo (Kinshasa)"	-3.31132006645203	17.3817005157471
1025	"Kikwit Airport"	"Kikwit"	"Congo (Kinshasa)"	-5.03576993942261	18.7856006622314
1026	"Mbandaka Airport"	"Mbandaka"	"Congo (Kinshasa)"	0.0226000007242	18.2887001038
1027	"Gbadolite Airport"	"Gbadolite"	"Congo (Kinshasa)"	4.25321006774902	20.9752998352051
1028	"Gemena Airport"	"Gemena"	"Congo (Kinshasa)"	3.23536992073	19.7712993622
1029	"Kotakoli Airport"	"Kotakoli"	"Congo (Kinshasa)"	4.15763998031616	21.650899887085
1030	"Lisala Airport"	"Lisala"	"Congo (Kinshasa)"	2.17066	21.496901
1031	"Bangoka International Airport"	"Kisangani"	"Congo (Kinshasa)"	0.481638997793	25.3379993439
1032	"Matari Airport"	"Isiro"	"Congo (Kinshasa)"	2.82761001586914	27.5883007049561
1033	"Bunia Airport"	"Bunia"	"Congo (Kinshasa)"	1.56571996212006	30.2208003997803
1034	"Buta Zega Airport"	"Buta Zega"	"Congo (Kinshasa)"	2.81835007667542	24.7936992645264
1035	"Bukavu Kavumu Airport"	"Bukavu/kavumu"	"Congo (Kinshasa)"	-2.30897998809814	28.8087997436523
1036	"Goma International Airport"	"Goma"	"Congo (Kinshasa)"	-1.67080998420715	29.2385005950928
1037	"Kindu Airport"	"Kindu"	"Congo (Kinshasa)"	-2.91917991638	25.9153995514
1038	"Lubumbashi International Airport"	"Lubumashi"	"Congo (Kinshasa)"	-11.5913000107	27.5308990479
1039	"Kolwezi Airport"	"Kolwezi"	"Congo (Kinshasa)"	-10.7658996582031	25.5056991577148
1040	"Kalemie Airport"	"Kalemie"	"Congo (Kinshasa)"	-5.87555980682373	29.25
1041	"Kamina Base Airport"	"Kamina Base"	"Congo (Kinshasa)"	-8.6420202255249	25.2528991699219
1042	"Kananga Airport"	"Kananga"	"Congo (Kinshasa)"	-5.90005016327	22.4692001343
1043	"Mbuji Mayi Airport"	"Mbuji-mayi"	"Congo (Kinshasa)"	-6.12124013901	23.5690002441
1044	"Modibo Keita International Airport"	"Bamako"	"Mali"	12.5335	-7.94994
1045	"Gao Airport"	"Gao"	"Mali"	16.2483997344971	-0.00545600010082126
1046	"Kayes Dag Dag Airport"	"Kayes"	"Mali"	14.4812002182007	-11.4043998718262
1047	"Mopti Airport"	"Mopti"	"Mali"	14.5128002167	-4.07955980301
1048	"Timbuktu Airport"	"Tombouctou"	"Mali"	16.7304992675781	-3.00758004188538
1049	"Tessalit Airport"	"Tessalit"	"Mali"	20.2430000305176	0.977307975292206
1050	"Banjul International Airport"	"Banjul"	"Gambia"	13.3380002975464	-16.6522006988525
1051	"Fuerteventura Airport"	"Fuerteventura"	"Spain"	28.4526996612549	-13.8638000488281
1052	"Hierro Airport"	"Hierro"	"Spain"	27.8148002624512	-17.8871002197266
1053	"La Palma Airport"	"Santa Cruz De La Palma"	"Spain"	28.626499	-17.7556
1054	"Gran Canaria Airport"	"Gran Canaria"	"Spain"	27.9319000244141	-15.3865995407104
1055	"Lanzarote Airport"	"Arrecife"	"Spain"	28.945499	-13.6052
1056	"Tenerife South Airport"	"Tenerife"	"Spain"	28.044500351	-16.5725002289
1057	"Tenerife Norte Airport"	"Tenerife"	"Spain"	28.4827003479	-16.3414993286
1058	"Melilla Airport"	"Melilla"	"Spain"	35.279800415	-2.9562599659
1059	"Lungi International Airport"	"Freetown"	"Sierra Leone"	8.61644	-13.1955
1060	"Cufar Airport"	"Cufar"	"Guinea-Bissau"	11.2878999710083	-15.1805000305176
1062	"Spriggs Payne Airport"	"Monrovia"	"Liberia"	6.28906011581421	-10.7587003707886
1063	"Roberts International Airport"	"Monrovia"	"Liberia"	6.23379	-10.3623
1064	"Al Massira Airport"	"Agadir"	"Morocco"	30.3250007629395	-9.41306972503662
1065	"Tan Tan Airport"	"Tan Tan"	"Morocco"	28.4482002258301	-11.1612997055054
1066	"Saïss Airport"	"Fes"	"Morocco"	33.9272994995	-4.97796010971
1067	"Ifrane Airport"	"Ifrane"	"Morocco"	33.505298614502	-5.15290021896362
1068	"Moulay Ali Cherif Airport"	"Er-rachidia"	"Morocco"	31.9475002289	-4.39833021164
1069	"Bassatine Airport"	"Meknes"	"Morocco"	33.8791007995605	-5.51512002944946
1070	"Angads Airport"	"Oujda"	"Morocco"	34.7872009277344	-1.92399001121521
1071	"Ben Slimane Airport"	"Ben Slimane"	"Morocco"	33.655399	-7.22145
1072	"Rabat-Salé Airport"	"Rabat"	"Morocco"	34.051498	-6.75152
1074	"Mohammed V International Airport"	"Casablanca"	"Morocco"	33.3675003051758	-7.58997011184692
1075	"Menara Airport"	"Marrakech"	"Morocco"	31.6068992615	-8.03629970551
1076	"Kenitra Airport"	"Kentira"	"Morocco"	34.298900604248	-6.59588003158569
1077	"Ouarzazate Airport"	"Ouarzazate"	"Morocco"	30.9391002655	-6.90943002701
1078	"Cherif Al Idrissi Airport"	"Al Hociema"	"Morocco"	35.1771011352539	-3.83951997756958
1079	"Saniat R'mel Airport"	"Tetouan"	"Morocco"	35.594299316406	-5.320020198822
1080	"Ibn Batouta Airport"	"Tanger"	"Morocco"	35.7268981934	-5.91689014435
1081	"Ziguinchor Airport"	"Ziguinchor"	"Senegal"	12.5556	-16.281799
1082	"Cap Skirring Airport"	"Cap Skiring"	"Senegal"	12.39533	-16.748
1083	"Kaolack Airport"	"Kaolack"	"Senegal"	14.146900177002	-16.0513000488281
1084	"Léopold Sédar Senghor International Airport"	"Dakar"	"Senegal"	14.7397003173828	-17.4902000427246
1085	"Saint Louis Airport"	"St. Louis"	"Senegal"	16.0508003234863	-16.4631996154785
1086	"Bakel Airport"	"Bakel"	"Senegal"	14.8472995758057	-12.4682998657227
1087	"Kédougou Airport"	"Kedougou"	"Senegal"	12.5722999572754	-12.2202997207642
1088	"Tambacounda Airport"	"Tambacounda"	"Senegal"	13.7368001937866	-13.6531000137329
1089	"Aioun el Atrouss Airport"	"Aioun El Atrouss"	"Mauritania"	16.7112998962402	-9.63788032531738
1090	"Tidjikja Airport"	"Tidjikja"	"Mauritania"	18.5701007843018	-11.4235000610352
1091	"Kiffa Airport"	"Kiffa"	"Mauritania"	16.5900001525879	-11.4062004089355
1092	"Néma Airport"	"Nema"	"Mauritania"	16.6219997406006	-7.31659984588623
1093	"Kaédi Airport"	"Kaedi"	"Mauritania"	16.1595001220703	-13.5075998306274
1094	"Nouakchott–Oumtounsy International Airport"	"Nouakschott"	"Mauritania"	18.31	-15.9697222
1095	"Sélibaby Airport"	"Selibabi"	"Mauritania"	15.1796998977661	-12.2073001861572
1096	"Atar International Airport"	"Atar"	"Mauritania"	20.506799697876	-13.0431995391846
1097	"Nouadhibou International Airport"	"Nouadhibou"	"Mauritania"	20.9330997467041	-17.0300006866455
1098	"Bir Moghrein Airport"	"Bir Moghrein"	"Mauritania"	25.2367000579834	-11.5887002944946
1099	"Fria Airport"	"Fira"	"Guinea"	10.350600242615	-13.569199562073
1100	"Faranah Airport"	"Faranah"	"Guinea"	10.0354995728	-10.7698001862
1101	"Tata Airport"	"Labe"	"Guinea"	11.326100349426	-12.286800384521
1102	"Amílcar Cabral International Airport"	"Amilcar Cabral"	"Cape Verde"	16.7414	-22.9494
1103	"Rabil Airport"	"Boa Vista"	"Cape Verde"	16.1364994049072	-22.8889007568359
1104	"Maio Airport"	"Maio"	"Cape Verde"	15.1559000015259	-23.2136993408203
1105	"Preguiça Airport"	"Sao Nocolau Island"	"Cape Verde"	16.588399887085	-24.2847003936768
1106	"São Pedro Airport"	"Sao Vicente Island"	"Cape Verde"	16.8332004547119	-25.0552997589111
1107	"Addis Ababa Bole International Airport"	"Addis Ababa"	"Ethiopia"	8.97789001465	38.7993011475
1108	"Lideta Army Airport"	"Addis Ababa"	"Ethiopia"	9.003685	38.725498
1109	"Arba Minch Airport"	"Arba Minch"	"Ethiopia"	6.03939008712769	37.5904998779297
1110	"Axum Airport"	"Axum"	"Ethiopia"	14.1468000411987	38.7728004455566
1111	"Bahir Dar Airport"	"Bahar Dar"	"Ethiopia"	11.608099937439	37.3216018676758
1112	"Aba Tenna Dejazmach Yilma International Airport"	"Dire Dawa"	"Ethiopia"	9.62469959259033	41.8541984558105
1113	"Gambella Airport"	"Gambella"	"Ethiopia"	8.12876033782959	34.5630989074707
1114	"Gonder Airport"	"Gondar"	"Ethiopia"	12.5199003219604	37.4339981079102
1116	"Jimma Airport"	"Jimma"	"Ethiopia"	7.66609001159668	36.8166007995605
1117	"Lalibella Airport"	"Lalibella"	"Ethiopia"	11.9750003814697	38.9799995422363
1118	"Mekele Airport"	"Makale"	"Ethiopia"	13.467399597168	39.5335006713867
1119	"Asosa Airport"	"Asosa"	"Ethiopia"	10.018500328064	34.5862998962402
1120	"Bujumbura International Airport"	"Bujumbura"	"Burundi"	-3.32401990890503	29.3185005187988
1121	"Egal International Airport"	"Hargeisa"	"Somalia"	9.51817035675049	44.0887985229492
1122	"Berbera Airport"	"Berbera"	"Somalia"	10.3892002105713	44.9411010742188
1123	"Kisimayu Airport"	"Kismayu"	"Somalia"	-0.377353012561798	42.4592018127441
1126	"El Nouzha Airport"	"Alexandria"	"Egypt"	31.1839008331299	29.9489002227783
1127	"Abu Simbel Airport"	"Abu Simbel"	"Egypt"	22.3759994507	31.611700058
1128	"Cairo International Airport"	"Cairo"	"Egypt"	30.1219005584717	31.4055995941162
1129	"Cairo West Airport"	"Cairo"	"Egypt"	30.116399765	30.9153995514
1130	"Hurghada International Airport"	"Hurghada"	"Egypt"	27.1783008575439	33.7994003295898
1131	"El Gora Airport"	"El Gorah"	"Egypt"	31.068559	34.129629
1132	"Luxor International Airport"	"Luxor"	"Egypt"	25.671	32.7066
1133	"Mersa Matruh Airport"	"Mersa-matruh"	"Egypt"	31.3253993988	27.2217006683
1134	"Port Said Airport"	"Port Said"	"Egypt"	31.2793998718262	32.2400016784668
1135	"St Catherine International Airport"	"St. Catherine"	"Egypt"	28.685300827	34.0625
1136	"Aswan International Airport"	"Aswan"	"Egypt"	23.9643993378	32.8199996948
1137	"El Tor Airport"	"El-tor"	"Egypt"	28.2089996337891	33.6455001831055
1138	"Eldoret International Airport"	"Eldoret"	"Kenya"	0.404457986354828	35.238899230957
1139	"Kakamega Airport"	"Kakamega"	"Kenya"	0.271342009306	34.7873001099
1140	"Kisumu Airport"	"Kisumu"	"Kenya"	-0.0861390009522438	34.7289009094238
1141	"Kitale Airport"	"Kitale"	"Kenya"	0.97198897600174	34.9585990905762
1143	"Lodwar Airport"	"Lodwar"	"Kenya"	3.1219699382782	35.608699798584
1144	"Manda Airstrip"	"Lamu"	"Kenya"	-2.25241994857788	40.9131011962891
1145	"Mombasa Moi International Airport"	"Mombasa"	"Kenya"	-4.03483009338379	39.5942001342773
1146	"Naivasha Airport"	"Naivasha"	"Kenya"	-0.787953	36.433494
1147	"Nairobi Wilson Airport"	"Nairobi"	"Kenya"	-1.32172000408173	36.8148002624512
1148	"Moi Air Base"	"Nairobi"	"Kenya"	-1.27726995945	36.8623008728
1149	"Wajir Airport"	"Wajir"	"Kenya"	1.73324	40.091599
1150	"Bu Attifel Airport"	"Buattifel"	"Libya"	28.7954006195068	22.0809001922607
1151	"Warehouse 59e Airport"	"Giallo"	"Libya"	28.638500213623	21.4379997253418
1152	"Ghat Airport"	"Ghat"	"Libya"	25.1455993652	10.1426000595
1153	"Kufra Airport"	"Kufra"	"Libya"	24.1786994934082	23.3139991760254
1154	"Benina International Airport"	"Benghazi"	"Libya"	32.0968017578	20.2695007324
1156	"Sabha Airport"	"Sebha"	"Libya"	26.9869995117188	14.4724998474121
1157	"Tripoli International Airport"	"Tripoli"	"Libya"	32.6635017395	13.1590003967
1158	"Marsa Brega Airport"	"Marsa Brega"	"Libya"	30.3780994415283	19.5764007568359
1159	"Ras Lanuf Oil Airport"	"Ras Lanouf V 40"	"Libya"	30.5	18.5272006988525
1160	"Hon Airport"	"Hon"	"Libya"	29.1100997924805	15.9656000137329
1161	"Dahra Airport"	"Dahra"	"Libya"	29.4726009368896	17.9349002838135
1162	"Ghadames East Airport"	"Ghadames"	"Libya"	30.1516990661621	9.71531009674072
1163	"Zella 74 Airport"	"Zella 74"	"Libya"	28.5898990631104	17.2938995361328
1164	"Gisenyi Airport"	"Gisenyi"	"Rwanda"	-1.67719995975494	29.2588996887207
1165	"Kigali International Airport"	"Kigali"	"Rwanda"	-1.96863	30.1395
1166	"Kamembe Airport"	"Kamembe"	"Rwanda"	-2.46223998069763	28.9078998565674
1167	"Dongola Airport"	"Dongola"	"Sudan"	19.1539001465	30.4300994873
1168	"Damazin Airport"	"Damazin"	"Sudan"	11.7859	34.3367
1169	"El Fasher Airport"	"El Fasher"	"Sudan"	13.6148996353149	25.3246002197266
1170	"Kassala Airport"	"Kassala"	"Sudan"	15.3874998092651	36.328800201416
1171	"Kadugli Airport"	"Kadugli"	"Sudan"	11.1379995346	29.7010993958
1172	"El Obeid Airport"	"El Obeid"	"Sudan"	13.1532001495361	30.2327003479004
1173	"Juba International Airport"	"Juba"	"South Sudan"	4.87201023102	31.6011009216
1174	"Malakal Airport"	"Malakal"	"Sudan"	9.55897045135498	31.6522006988525
1175	"Khartoum International Airport"	"Khartoum"	"Sudan"	15.5895004272461	32.5531997680664
1176	"Arusha Airport"	"Arusha"	"Tanzania"	-3.36778998374939	36.63330078125
1177	"Julius Nyerere International Airport"	"Dar Es Salaam"	"Tanzania"	-6.87811	39.202599
1178	"Dodoma Airport"	"Dodoma"	"Tanzania"	-6.17044019699097	35.7526016235352
1179	"Iringa Airport"	"Iringa"	"Tanzania"	-7.66863012313843	35.7521018981934
1180	"Kilimanjaro International Airport"	"Kilimanjaro"	"Tanzania"	-3.42940998077	37.0745010376
1181	"Lake Manyara Airport"	"Lake Manyara"	"Tanzania"	-3.37631011009216	35.8182983398438
1182	"Mtwara Airport"	"Mtwara"	"Tanzania"	-10.3390998840332	40.1818008422852
1183	"Mwanza Airport"	"Mwanza"	"Tanzania"	-2.4444899559021	32.9327011108398
1184	"Pemba Airport"	"Pemba"	"Tanzania"	-5.25725984573364	39.8114013671875
1185	"Tanga Airport"	"Tanga"	"Tanzania"	-5.09236001968384	39.0712013244629
1186	"Abeid Amani Karume International Airport"	"Zanzibar"	"Tanzania"	-6.22202	39.224899
1187	"Entebbe International Airport"	"Entebbe"	"Uganda"	0.042386	32.443501
1189	"Soroti Airport"	"Soroti"	"Uganda"	1.72768998146057	33.6227989196777
1190	"Tirana International Airport Mother Teresa"	"Tirana"	"Albania"	41.4146995544	19.7206001282
1191	"Burgas Airport"	"Bourgas"	"Bulgaria"	42.5695991516113	27.5151996612549
1192	"Gorna Oryahovitsa Airport"	"Gorna Orechovica"	"Bulgaria"	43.1514015197754	25.7129001617432
1193	"Plovdiv International Airport"	"Plovdiv"	"Bulgaria"	42.067799	24.8508
1194	"Sofia Airport"	"Sofia"	"Bulgaria"	42.6966934204102	23.4114360809326
1195	"Stara Zagora Airport"	"Stara Zagora"	"Bulgaria"	42.3766667	25.655
1196	"Varna Airport"	"Varna"	"Bulgaria"	43.232101	27.8251
1197	"Larnaca International Airport"	"Larnaca"	"Cyprus"	34.8750991821289	33.6249008178711
1198	"Paphos International Airport"	"Paphos"	"Cyprus"	34.7179985046387	32.4856986999512
1199	"RAF Akrotiri"	"Akrotiri"	"Cyprus"	34.590401	32.9879
1200	"Dubrovnik Airport"	"Dubrovnik"	"Croatia"	42.5614013671875	18.2681999206543
1201	"Osijek-Čepin Airfield"	"Cepin"	"Croatia"	45.5427778	18.6319444
1202	"Osijek Airport"	"Osijek"	"Croatia"	45.4626998901367	18.8101997375488
1203	"Pula Airport"	"Pula"	"Croatia"	44.8935012817383	13.9222002029419
1204	"Grobnicko Polje Airport"	"Grobnik"	"Croatia"	45.3795013427734	14.5038003921509
1205	"Rijeka Airport"	"Rijeka"	"Croatia"	45.2168998718262	14.5703001022339
1206	"Split Airport"	"Split"	"Croatia"	43.5388984680176	16.2980003356934
1207	"Varaždin Airport"	"Varazdin"	"Croatia"	46.2946472167969	16.3829326629639
1208	"Zagreb Airport"	"Zagreb"	"Croatia"	45.7429008484	16.0687999725
1209	"Zadar Airport"	"Zadar"	"Croatia"	44.108299	15.3467
1210	"Udbina Air Base"	"Udbina"	"Croatia"	44.5575981140137	15.7743997573853
1211	"Albacete-Los Llanos Airport"	"Albacete"	"Spain"	38.9485015869	-1.86352002621
1212	"Alicante International Airport"	"Alicante"	"Spain"	38.2821998596191	-0.55815601348877
1213	"Almería International Airport"	"Almeria"	"Spain"	36.8438987731934	-2.3701000213623
1214	"Asturias Airport"	"Aviles"	"Spain"	43.5635986328125	-6.03461980819702
1215	"Córdoba Airport"	"Cordoba"	"Spain"	37.8419990539551	-4.84887981414795
1216	"Bilbao Airport"	"Bilbao"	"Spain"	43.3011016845703	-2.91060996055603
1218	"Barcelona International Airport"	"Barcelona"	"Spain"	41.2971	2.07846
1219	"Badajoz Airport"	"Badajoz"	"Spain"	38.891300201416	-6.82133007049561
1220	"A Coruña Airport"	"La Coruna"	"Spain"	43.302101	-8.37726
1221	"Armilla Air Base"	"Granada"	"Spain"	37.1332016	-3.63568997
1222	"Girona Airport"	"Gerona"	"Spain"	41.901000977	2.7605500221
1223	"Federico Garcia Lorca Airport"	"Granada"	"Spain"	37.1887016296387	-3.77735996246338
1224	"Getafe Air Base"	"Madrid"	"Spain"	40.2941017150879	-3.72382998466492
1225	"Ibiza Airport"	"Ibiza"	"Spain"	38.8728981018	1.37311995029
1226	"Jerez Airport"	"Jerez"	"Spain"	36.7445983886719	-6.06011009216309
1227	"San Javier Airport"	"Murcia"	"Spain"	37.7750015258789	-0.812389016151428
1229	"Adolfo Suárez Madrid–Barajas Airport"	"Madrid"	"Spain"	40.471926	-3.56264
1230	"Málaga Airport"	"Malaga"	"Spain"	36.6749000549316	-4.49911022186279
1231	"Menorca Airport"	"Menorca"	"Spain"	39.8625984191895	4.21864986419678
1232	"Moron Air Base"	"Sevilla"	"Spain"	37.1749000549316	-5.61594009399414
1233	"Ocaña Airport"	"Ocana"	"Spain"	39.9375	-3.50332999229431
1234	"Pamplona Airport"	"Pamplona"	"Spain"	42.7700004577637	-1.64632999897003
1235	"Alcantarilla Air Base"	"Murcia"	"Spain"	37.951099	-1.23032
1236	"Reus Air Base"	"Reus"	"Spain"	41.1473999023438	1.16717004776001
1237	"Rota Naval Station Airport"	"Rota"	"Spain"	36.645198822	-6.34946012497
1238	"Salamanca Airport"	"Salamanca"	"Spain"	40.9520988464355	-5.50198984146118
1239	"Son Bonet Airport"	"Son Bonet"	"Spain"	39.5988998413086	2.70278000831604
1241	"San Luis Airport"	"San Luis"	"Spain"	39.8622016906738	4.25832986831665
1242	"San Sebastian Airport"	"San Sebastian"	"Spain"	43.3564987182617	-1.79060995578766
1243	"Santiago de Compostela Airport"	"Santiago"	"Spain"	42.8963012695312	-8.41514015197754
1244	"Pirineus - la Seu d'Urgel Airport"	"Seo De Urgel"	"Spain"	42.3386	1.40917
1245	"Torrejón Airport"	"Madrid"	"Spain"	40.4967002868652	-3.44586992263794
1246	"Valencia Airport"	"Valencia"	"Spain"	39.4893	-0.481625
1247	"Valladolid Airport"	"Valladolid"	"Spain"	41.7061004639	-4.85194015503
1249	"Vitoria/Foronda Airport"	"Vitoria"	"Spain"	42.8828010559082	-2.72446990013123
1250	"Vigo Airport"	"Vigo"	"Spain"	42.2318000793457	-8.62677001953125
1251	"Santander Airport"	"Santander"	"Spain"	43.4271011352539	-3.82000994682312
1252	"Zaragoza Air Base"	"Zaragoza"	"Spain"	41.6661987304688	-1.04155004024506
1253	"Sevilla Airport"	"Sevilla"	"Spain"	37.4179992675781	-5.8931097984314
1254	"Calais-Dunkerque Airport"	"Calais"	"France"	50.962100982666	1.95475995540619
1255	"Péronne-Saint-Quentin Airport"	"Peronne"	"France"	49.8685	3.02958
1256	"Nangis-Les Loges Airport"	"Nangis"	"France"	48.5961990356445	3.00678992271423
1257	"Bagnoles-de-l'Orne-Couterne Airport"	"Bagnole-de-l'orne"	"France"	48.5457992553711	-0.387443989515305
1258	"Albert-Bray Airport"	"Albert"	"France"	49.9715003967	2.69765996933
1259	"Le Touquet-Côte d'Opale Airport"	"Le Tourquet"	"France"	50.5173988342285	1.62058997154236
1260	"Valenciennes-Denain Airport"	"Valenciennes"	"France"	50.3258018493652	3.46126008033752
1261	"Amiens-Glisy Airport"	"Amiens"	"France"	49.873004	2.387074
1262	"Agen-La Garenne Airport"	"Agen"	"France"	44.1747016906738	0.590556025505066
1263	"Cazaux (BA 120) Air Base"	"Cazaux"	"France"	44.5332984924316	-1.125
1264	"Bordeaux-Mérignac Airport"	"Bordeaux"	"France"	44.8283004761	-0.715556025505
1265	"Bergerac-Roumanière Airport"	"Bergerac"	"France"	44.8252983093262	0.518611013889313
1266	"Toulouse-Francazal (BA 101) Air Base"	"Toulouse"	"France"	43.5456008911133	1.36749994754791
1267	"Cognac-Châteaubernard (BA 709) Air Base"	"Cognac"	"France"	45.6582984924316	-0.317499995231628
1268	"Poitiers-Biard Airport"	"Poitiers"	"France"	46.5876998901367	0.306665986776352
1269	"Montluçon-Guéret Airport"	"Montlucon-gueret"	"France"	46.222599029541	2.3639600276947
1270	"Limoges Airport"	"Limoges"	"France"	45.8628005981445	1.17944002151489
1271	"Mont-de-Marsan (BA 118) Air Base"	"Mont-de-marsan"	"France"	43.911701	-0.5075
1272	"Niort-Souché Airport"	"Niort"	"France"	46.313477	-0.394529
1273	"Toulouse-Blagnac Airport"	"Toulouse"	"France"	43.629101	1.36382
1274	"Pau Pyrénées Airport"	"Pau"	"France"	43.3800010681152	-0.418610990047455
1275	"Muret-Lherm Airport"	"La Rochelle"	"France"	43.4488983154297	1.26332998275757
1276	"Tarbes-Lourdes-Pyrénées Airport"	"Tarbes"	"France"	43.1786994934082	-0.006438999902457
1277	"Angoulême-Brie-Champniers Airport"	"Angouleme"	"France"	45.7291984558105	0.221456006169319
1278	"Brive Souillac Airport"	"Brive"	"France"	45.039722	1.485556
1279	"Périgueux-Bassillac Airport"	"Perigueux"	"France"	45.1981010437012	0.815555989742279
1280	"Biarritz-Anglet-Bayonne Airport"	"Biarritz-bayonne"	"France"	43.4683333	-1.5311111
1281	"Cahors-Lalbenque Airport"	"Cahors"	"France"	44.3513984680176	1.47528004646301
1282	"Saint-Girons-Antichan Airport"	"St.-girons"	"France"	43.0078010559082	1.10315001010895
1283	"Arcachon-La Teste-de-Buch Airport"	"Arcachon"	"France"	44.596401	-1.11083
1284	"Albi-Le Séquestre Airport"	"Albi"	"France"	43.9138984680176	2.11305999755859
1285	"Castres-Mazamet Airport"	"Castres"	"France"	43.5563011169434	2.2891800403595
1286	"Toulouse-Lasbordes Airport"	"Toulouse"	"France"	43.5861015319824	1.49916994571686
1287	"Millau-Larzac Airfield"	"Millau"	"France"	43.9893	3.183
1288	"Graulhet-Montdragon Airport"	"Graulhet"	"France"	43.7710990905762	2.01082992553711
1289	"Rodez-Marcillac Airport"	"Rodez"	"France"	44.407901763916	2.48267006874084
1290	"Ussel-Thalamy Airport"	"Ussel"	"France"	45.5346984863281	2.42389011383057
